~VERSION	INFORMATION										
VERS.	2	:CWLS	LOG	ASCII	STANDARD--VERSION	2					
WRAP.	YES	:MULTIPLE	LINE	PER	DEPTH	STEP					
~WELL	INFORMATION										
#MNEM.UNIT	DATA	DESCRIPTION									
#================================================											
STRT.F	10000	:START	DEPTH								
STOP.F	11856	:STOP	DEPTH								
STEP.F	0.5	:STEP									
NULL.	-999	:NULL	VALUE								
WELL.	X-5	:	WELL	NAME							
UWI.	Well	X-5	:	WELL	UWI						
API.	Well	X-5	:	WELL	API						
LOC.	UKCS	:	WELL	LOCATION							
DATE.	1994	:	WELL	DATE							
FLD.	Xf	:	Project	Name							
~CURVE	INFORMATION										
#================================================											
DEPTH	.ft	:DEPTH									
GR	.GAPI	:GR									
DENS.g/cc	:DENS										
SONI.us/f	:SONI										
CNL	.por%	:CNL									
MSFL.ohmm	:MSFL										
LL9S.ohmm	:LL9S										
LL9D.ohmm	:LL9D										
CALI.in	:CALI										
DI	.in	:DI									
RT	.ohmm	:RT									
RX0	.ohmm	:RX0									
TVD	.ft	:TVD									
Y	DEV	.ft	:Y	DEV							
X	DEV	.ft	:X	DEV							
ALPHA	.UNKN	:ALPHA									
KH	.UNKN	:KH									
KV	.UNKN	:KV									
CPOR.UNKN	:CPOR										
GD	.UNKN	:GD									
~PARAMETERS	INFORMATION										
#================================================											
ELEV.ft	78	:	TLOG	CONSTANT	-	4	-	ELEVATION			
RMC	.ohmm	3	:	TLOG	CONSTANT	-	5	-	RMC		
TRMC.degF	75	:	TLOG	CONSTANT	-	6	-	TRMC			
RM	.ohmm	3	:	TLOG	CONSTANT	-	7	-	RM		
TRM	.degF	75	:	TLOG	CONSTANT	-	8	-	TRM		
RMF	.ohmm	3	:	TLOG	CONSTANT	-	9	-	RMF		
TRMF.degF	75	:	TLOG	CONSTANT	-	10	-	TRMF			
RW	.ohmm	3	:	TLOG	CONSTANT	-	11	-	RW		
TRW	.degF	75	:	TLOG	CONSTANT	-	12	-	TRW		
BHT	.degF	120	:	TLOG	CONSTANT	-	13	-	BHT		
MEAN.degF	75	:	TLOG	CONSTANT	-	14	-	MEAN	SURF	TEMP	
ARCH.UNKN	1	:	TLOG	CONSTANT	-	16	-	ARCHIE	A		
ARCH.UNKN	2	:	TLOG	CONSTANT	-	17	-	ARCHIE	M		
SAT	.UNKN	2	:	TLOG	CONSTANT	-	18	-	SAT	EXP	(N)
R	SH.ohmm	9	:	TLOG	CONSTANT	-	19	-	R	SHALE	
TD	.ft	5000	:	TLOG	CONSTANT	-	20	-	TD		
CALI.UNKN	18	:	TLOG	CONSTANT	-	23	-	CALIPER	CHANNEL		
BIT	.in	8	:	TLOG	CONSTANT	-	24	-	BIT	SIZE	(IN)
MUD	.lb/g	8	:	TLOG	CONSTANT	-	25	-	MUD	WEIGHT(#/GL)	
FM	S.ppm	0	:	TLOG	CONSTANT	-	26	-	FM	SALINITY(PPM)	
BH	S.ppm	0	:	TLOG	CONSTANT	-	27	-	BH	SALINITY(PPM)	
STAN.in	0	:	TLOG	CONSTANT	-	28	-	STANDOFF	(IL)		
STAN.in	0	:	TLOG	CONSTANT	-	29	-	STANDOFF	(NEUT)		
O_D_.in	7	:	TLOG	CONSTANT	-	30	-	O.D.	CASING(IN)		
WT_	.lb/f	20	:	TLOG	CONSTANT	-	31	-	WT.	CASING(#/FT)	
TYPE.UNKN	0	:	TLOG	CONSTANT	-	32	-	TYPE	OF	MUD	
AUTO.UNKN	0	:	TLOG	CONSTANT	-	33	-	AUTO	CALI	CORR	
GR	M.GAPI	20	:	TLOG	CONSTANT	-	61	-	GR	MATRIX	
RHO	.g/cc	2.71	:	TLOG	CONSTANT	-	62	-	RHO	MATRIX	
DT	M.us/f	47.5	:	TLOG	CONSTANT	-	63	-	DT	MATRIX	
CNL	.pu	0	:	TLOG	CONSTANT	-	64	-	CNL	MATRIX	
GR	S.GAPI	120	:	TLOG	CONSTANT	-	65	-	GR	SHALE	
RHO	.g/cc	2.4	:	TLOG	CONSTANT	-	66	-	RHO	SHALE	
DT	S.us/f	100	:	TLOG	CONSTANT	-	67	-	DT	SHALE	
CNL	.pu	0.3	:	TLOG	CONSTANT	-	68	-	CNL	SHALE	
GR	F.GAPI	20	:	TLOG	CONSTANT	-	69	-	GR	FLUID	
RHO	.g/cc	1	:	TLOG	CONSTANT	-	70	-	RHO	FLUID	
DT	F.us/f	189	:	TLOG	CONSTANT	-	71	-	DT	FLUID	
CNL	.pu	1	:	TLOG	CONSTANT	-	72	-	CNL	FLUID	
DT	M.us/f	82	:	TLOG	CONSTANT	-	73	-	DT	MATRIX	SHALE
~A
# ...
11506.5	67.8	2.426	80.141	19.84	-999	-999	-999	13.124	12	-999	-999	10848.45996	401.11639	361.68024	524.14789	-999	-999	-999	-999
11507	63.955	2.409	79.886	19.08	-999	-999	-999	13.073	12	-999	-999	10848.91406	401.2728	361.82144	524.35248	0.05	-999	10.4	2.71
11507.5	61.921	2.405	81.244	19.18	-999	-999	-999	12.768	12	-999	-999	10849.36719	401.42917	361.96265	524.55701	-999	-999	-999	-999
11508	60.492	2.409	82.295	19.1	-999	-999	-999	12.717	12	-999	-999	10849.82031	401.58548	362.10385	524.76147	0.43	-999	16	2.67
11508.5	60.443	2.405	83.384	19.36	-999	-999	-999	12.819	12	-999	-999	10850.27441	401.74179	362.24506	524.96588	-999	-999	-999	-999
11509	60.7	2.394	82.691	19.4	-999	-999	-999	12.819	12	-999	-999	10850.72754	401.89807	362.38626	525.17035	3.5	0.19	14.5	2.68
11509.5	60.7	2.403	82.338	19.84	-999	-999	-999	12.921	12	-999	-999	10851.18066	402.05432	362.52744	525.37476	-999	-999	-999	-999
11510	60.7	2.425	81.928	20.1	-999	-999	-999	12.972	12	-999	-999	10851.63477	402.21054	362.66864	525.57922	-999	-999	11.1	2.68
11510.5	59.809	2.441	82.183	19.24	-999	-999	-999	12.972	12	-999	-999	10852.08789	402.36673	362.80981	525.78357	-999	-999	-999	-999
11511	58.45	2.449	83.467	18.52	-999	-999	-999	12.972	12	-999	-999	10852.54199	402.52289	362.95102	525.98798	-999	-999	-999	-999
11511.5	57.767	2.431	83.01	18.68	-999	-999	-999	13.073	12	-999	-999	10852.99512	402.67902	363.09219	526.19226	-999	-999	-999	-999
11512	56.912	2.408	82.7	19.04	-999	-999	-999	13.175	12	-999	-999	10853.44824	402.83514	363.2334	526.39673	0.05	-999	12.2	2.68
11512.5	57.656	2.405	82.774	18.82	-999	-999	-999	13.226	12	-999	-999	10853.90234	402.99121	363.37457	526.60101	-999	-999	-999	-999
11513	59.069	2.435	83.553	18.88	-999	-999	-999	13.327	12	-999	-999	10854.35547	403.14725	363.51575	526.8053	-999	-999	-999	-999
11513.5	60.684	2.45	84.334	18.78	-999	-999	-999	13.378	12	-999	-999	10854.80957	403.30325	363.65692	527.00952	0.07	-999	10.3	2.69
11514	62.95	2.454	85.035	18.68	-999	-999	-999	13.48	12	-999	-999	10855.2627	403.45923	363.7981	527.21381	-999	-999	-999	-999
11514.5	64.495	2.45	84.293	18.92	-999	-999	-999	13.785	12	-999	-999	10855.7168	403.61517	363.93927	527.41809	-999	-999	-999	-999
11515	63.843	2.457	84.292	19.24	-999	-999	-999	14.039	12	-999	-999	10856.16992	403.77112	364.08044	527.62231	0.35	-999	15	2.76
11515.5	62.649	2.468	84.249	19.18	-999	-999	-999	14.09	12	-999	-999	10856.62402	403.927	364.22162	527.82654	-999	-999	-999	-999
11516	62.136	2.482	82.699	19.68	-999	-999	-999	14.243	12	-999	-999	10857.07715	404.08286	364.36279	528.0307	0.48	-999	15.5	2.68
11516.5	63.354	2.493	81.864	20.22	-999	-999	-999	14.293	12	-999	-999	10857.53125	404.23871	364.50397	528.23486	-999	-999	-999	-999
11517	64.813	2.488	81.135	20.94	-999	-999	-999	14.344	12	-999	-999	10857.98438	404.3945	364.64511	528.43903	0.07	-999	13.1	2.68
11517.5	67.594	2.493	81.137	21.16	-999	-999	-999	14.344	12	-999	-999	10858.43848	404.55029	364.78629	528.64319	-999	-999	-999	-999
11518	69.089	2.49	81.51	21.04	-999	-999	-999	14.395	12	-999	-999	10858.8916	404.70602	364.92743	528.84729	-999	-999	-999	-999
11518.5	69.534	2.489	81.922	21.1	-999	-999	-999	14.395	12	-999	-999	10859.3457	404.86172	365.0686	529.05139	-999	-999	-999	-999
11519	69.949	2.49	82.706	20.28	-999	-999	-999	14.395	12	-999	-999	10859.7998	405.01743	365.20975	529.25543	0.58	-999	15.5	2.69
11519.5	70.691	2.493	82.705	20.72	-999	-999	-999	14.497	12	-999	-999	10860.25293	405.17307	365.35092	529.45953	-999	-999	-999	-999
11520	71.023	2.493	83.031	20.22	-999	-999	-999	14.395	12	-999	-999	10860.70703	405.3287	365.49207	529.66364	-999	-999	11	2.68
11520.5	69.884	2.501	83.487	20.6	-999	-999	-999	14.344	12	-999	-999	10861.16016	405.48431	365.63321	529.86768	-999	-999	-999	-999
11521	68.784	2.498	82.72	20.9	-999	-999	-999	14.497	12	-999	-999	10861.61426	405.63986	365.77435	530.07159	-999	-999	-999	-999
11521.5	69.187	2.492	82.326	21.4	-999	-999	-999	14.497	12	-999	-999	10862.06836	405.79541	365.9155	530.27563	-999	-999	-999	-999
11522	69.363	2.5	81.919	21.8	-999	-999	-999	14.395	12	-999	-999	10862.52148	405.95093	366.05664	530.47955	0.37	-999	16	2.68
11522.5	69.363	2.502	81.91	22.38	-999	-999	-999	14.598	12	-999	-999	10862.97559	406.10638	366.19778	530.68353	-999	-999	-999	-999
11523	70.364	2.502	81.907	22.02	-999	-999	-999	14.598	12	-999	-999	10863.42969	406.26184	366.33893	530.88745	1.1	-999	17.5	2.68
11523.5	71.413	2.485	82.279	21.2	-999	-999	-999	14.446	12	-999	-999	10863.88281	406.41727	366.48007	531.09143	-999	-999	-999	-999
11524	72.204	2.467	82.859	21.1	-999	-999	-999	14.446	12	-999	-999	10864.33691	406.57266	366.62119	531.29529	-999	-999	-999	-999
11524.5	73.333	2.473	83.448	20.78	-999	-999	-999	14.446	12	-999	-999	10864.79102	406.728	366.76233	531.49915	-999	-999	-999	-999
11525	74.538	2.477	83.204	20.2	-999	-999	-999	14.497	12	-999	-999	10865.24414	406.88333	366.90347	531.703	1	0.56	18.1	2.67
11525.5	74.93	2.456	82.9	20.52	-999	-999	-999	14.395	12	-999	-999	10865.69824	407.03864	367.04459	531.90692	-999	-999	-999	-999
11526	73.67	2.452	82.705	20.48	-999	-999	-999	14.344	12	-999	-999	10866.15234	407.19391	367.1857	532.11066	-999	-999	-999	-999
11526.5	73.113	2.452	83.4	20.82	-999	-999	-999	14.344	12	-999	-999	10866.60645	407.34915	367.32684	532.31451	0.23	-999	14.2	2.68
11527	72.569	2.438	83.473	20.56	-999	-999	-999	14.293	12	-999	-999	10867.05957	407.50436	367.46796	532.51825	-999	-999	-999	-999
11527.5	73.486	2.432	83.472	20.6	-999	-999	-999	14.243	12	-999	-999	10867.51367	407.65955	367.60907	532.72205	-999	-999	-999	-999
11528	74.517	2.437	83.47	21.62	-999	-999	-999	14.344	12	-999	-999	10867.96777	407.8147	367.75018	532.92578	-999	-999	-999	-999
11528.5	76.287	2.439	83.469	21.98	-999	-999	-999	14.293	12	-999	-999	10868.42188	407.96982	367.89133	533.12952	-999	-999	-999	-999
11529	75.37	2.429	83.467	21.04	-999	-999	-999	14.293	12	-999	-999	10868.87598	408.12491	368.03241	533.33331	-999	-999	-999	-999
11529.5	73.699	2.424	83.466	21	-999	-999	-999	14.293	12	-999	-999	10869.3291	408.27997	368.17352	533.53693	-999	-999	-999	-999
11530	72.134	2.445	83.467	21.68	-999	-999	-999	14.395	12	-999	-999	10869.7832	408.435	368.31464	533.7406	-999	-999	-999	-999
11530.5	71.133	2.451	82.759	21.54	-999	-999	-999	14.192	12	-999	-999	10870.2373	408.59	368.45575	533.94427	-999	-999	-999	-999
11531	71.048	2.446	83.163	21.42	-999	-999	-999	14.192	12	-999	-999	10870.69141	408.74496	368.59686	534.14795	-999	-999	-999	-999
11531.5	69.045	2.457	83.97	21.3	-999	-999	-999	14.344	12	-999	-999	10871.14551	408.89993	368.73795	534.3515	-999	-999	-999	-999
11532	68.014	2.441	84.724	21.3	-999	-999	-999	14.243	12	-999	-999	10871.59961	409.05484	368.87906	534.55518	-999	-999	-999	-999
11532.5	67.211	2.439	85.589	21.84	-999	-999	-999	14.09	12	-999	-999	10872.05273	409.20972	369.02017	534.75879	-999	-999	-999	-999
11533	67.524	2.456	85.82	22.14	-999	-999	-999	14.141	12	-999	-999	10872.50684	409.36456	369.16125	534.96234	-999	-999	-999	-999
11533.5	69.202	2.477	85.824	22.54	-999	-999	-999	14.293	12	-999	-999	10872.96094	409.51941	369.30234	535.16589	-999	-999	-999	-999
11534	68.805	2.498	84.956	22.2	-999	-999	-999	14.497	12	-999	-999	10873.41504	409.67419	369.44345	535.36945	-999	-999	-999	-999
11534.5	68.017	2.518	83.686	21.76	-999	-999	-999	14.7	12	-999	-999	10873.86914	409.82898	369.58453	535.57294	-999	-999	-999	-999
11535	66.416	2.53	82.87	22	-999	-999	-999	14.7	12	-999	-999	10874.32324	409.9837	369.72562	535.77643	-999	-999	-999	-999
11535.5	66.213	2.53	82.664	22.32	-999	-999	-999	14.751	12	-999	-999	10874.77734	410.1384	369.8667	535.97986	-999	-999	-999	-999
11536	66.213	2.532	82.662	22.32	-999	-999	-999	14.751	12	-999	-999	10875.23145	410.29309	370.00778	536.18335	-999	-999	-999	-999
11536.5	68.137	2.513	82.661	21.98	-999	-999	-999	14.751	12	-999	-999	10875.68555	410.44772	370.14886	536.38678	-999	-999	-999	-999
11537	69.221	2.497	82.66	21.44	-999	-999	-999	14.802	12	-999	-999	10876.13965	410.60236	370.28995	536.59021	-999	-999	-999	-999
11537.5	69.336	2.475	82.656	21.24	-999	-999	-999	14.751	12	-999	-999	10876.59375	410.75693	370.43103	536.79358	-999	-999	-999	-999
