~VERSION	INFORMATION										
VERS.	2	:CWLS	LOG	ASCII	STANDARD--VERSION	2					
WRAP.	YES	:MULTIPLE	LINE	PER	DEPTH	STEP					
~WELL	INFORMATION										
#MNEM.UNIT	DATA	DESCRIPTION									
#================================================											
STRT.F	10000	:START	DEPTH								
STOP.F	11856	:STOP	DEPTH								
STEP.F	0.5	:STEP									
NULL.	-999	:NULL	VALUE								
WELL.	X-5	:	WELL	NAME							
UWI.	Well	X-5	:	WELL	UWI						
API.	Well	X-5	:	WELL	API						
LOC.	UKCS	:	WELL	LOCATION							
DATE.	1994	:	WELL	DATE							
FLD.	Xf	:	Project	Name							
~CURVE	INFORMATION										
#================================================											
DEPTH	.ft	:DEPTH									
GR	.GAPI	:GR									
DENS.g/cc	:DENS										
SONI.us/f	:SONI										
CNL	.por%	:CNL									
MSFL.ohmm	:MSFL										
LL9S.ohmm	:LL9S										
LL9D.ohmm	:LL9D										
CALI.in	:CALI										
DI	.in	:DI									
RT	.ohmm	:RT									
RX0	.ohmm	:RX0									
TVD	.ft	:TVD									
Y	DEV	.ft	:Y	DEV							
X	DEV	.ft	:X	DEV							
ALPHA	.UNKN	:ALPHA									
KH	.UNKN	:KH									
KV	.UNKN	:KV									
CPOR.UNKN	:CPOR										
GD	.UNKN	:GD									
~PARAMETERS	INFORMATION										
#================================================											
ELEV.ft	78	:	TLOG	CONSTANT	-	4	-	ELEVATION			
RMC	.ohmm	3	:	TLOG	CONSTANT	-	5	-	RMC		
TRMC.degF	75	:	TLOG	CONSTANT	-	6	-	TRMC			
RM	.ohmm	3	:	TLOG	CONSTANT	-	7	-	RM		
TRM	.degF	75	:	TLOG	CONSTANT	-	8	-	TRM		
RMF	.ohmm	3	:	TLOG	CONSTANT	-	9	-	RMF		
TRMF.degF	75	:	TLOG	CONSTANT	-	10	-	TRMF			
RW	.ohmm	3	:	TLOG	CONSTANT	-	11	-	RW		
TRW	.degF	75	:	TLOG	CONSTANT	-	12	-	TRW		
BHT	.degF	120	:	TLOG	CONSTANT	-	13	-	BHT		
MEAN.degF	75	:	TLOG	CONSTANT	-	14	-	MEAN	SURF	TEMP	
ARCH.UNKN	1	:	TLOG	CONSTANT	-	16	-	ARCHIE	A		
ARCH.UNKN	2	:	TLOG	CONSTANT	-	17	-	ARCHIE	M		
SAT	.UNKN	2	:	TLOG	CONSTANT	-	18	-	SAT	EXP	(N)
R	SH.ohmm	9	:	TLOG	CONSTANT	-	19	-	R	SHALE	
TD	.ft	5000	:	TLOG	CONSTANT	-	20	-	TD		
CALI.UNKN	18	:	TLOG	CONSTANT	-	23	-	CALIPER	CHANNEL		
BIT	.in	8	:	TLOG	CONSTANT	-	24	-	BIT	SIZE	(IN)
MUD	.lb/g	8	:	TLOG	CONSTANT	-	25	-	MUD	WEIGHT(#/GL)	
FM	S.ppm	0	:	TLOG	CONSTANT	-	26	-	FM	SALINITY(PPM)	
BH	S.ppm	0	:	TLOG	CONSTANT	-	27	-	BH	SALINITY(PPM)	
STAN.in	0	:	TLOG	CONSTANT	-	28	-	STANDOFF	(IL)		
STAN.in	0	:	TLOG	CONSTANT	-	29	-	STANDOFF	(NEUT)		
O_D_.in	7	:	TLOG	CONSTANT	-	30	-	O.D.	CASING(IN)		
WT_	.lb/f	20	:	TLOG	CONSTANT	-	31	-	WT.	CASING(#/FT)	
TYPE.UNKN	0	:	TLOG	CONSTANT	-	32	-	TYPE	OF	MUD	
AUTO.UNKN	0	:	TLOG	CONSTANT	-	33	-	AUTO	CALI	CORR	
GR	M.GAPI	20	:	TLOG	CONSTANT	-	61	-	GR	MATRIX	
RHO	.g/cc	2.71	:	TLOG	CONSTANT	-	62	-	RHO	MATRIX	
DT	M.us/f	47.5	:	TLOG	CONSTANT	-	63	-	DT	MATRIX	
CNL	.pu	0	:	TLOG	CONSTANT	-	64	-	CNL	MATRIX	
GR	S.GAPI	120	:	TLOG	CONSTANT	-	65	-	GR	SHALE	
RHO	.g/cc	2.4	:	TLOG	CONSTANT	-	66	-	RHO	SHALE	
DT	S.us/f	100	:	TLOG	CONSTANT	-	67	-	DT	SHALE	
CNL	.pu	0.3	:	TLOG	CONSTANT	-	68	-	CNL	SHALE	
GR	F.GAPI	20	:	TLOG	CONSTANT	-	69	-	GR	FLUID	
RHO	.g/cc	1	:	TLOG	CONSTANT	-	70	-	RHO	FLUID	
DT	F.us/f	189	:	TLOG	CONSTANT	-	71	-	DT	FLUID	
CNL	.pu	1	:	TLOG	CONSTANT	-	72	-	CNL	FLUID	
DT	M.us/f	82	:	TLOG	CONSTANT	-	73	-	DT	MATRIX	SHALE
~A
# ...
10990	65.425	2.161	92.851	24.804	3.004	3.321	8.419	10.125	140	15.1284	3.58222	10371.46582	255.19084	228.95999	332.51733	-999	-999	-999	-999
10990.5	65.425	2.149	93.296	24.671	2.858	3.343	8.444	10.125	140	14.73335	3.34084	10371.93555	255.31625	229.07654	332.68411	1500	-999	26	2.63
10991	65.425	2.139	93.525	24.452	2.88	3.358	8.434	10.125	140	14.79417	3.37665	10372.40527	255.4417	229.19313	332.85089	-999	-999	-999	-999
10991.5	64.637	2.137	93.525	24.209	2.826	3.267	8.241	10.125	140	14.44203	3.28923	10372.875	255.56717	229.30977	333.01776	1500	-999	26.4	2.63
10992	63.85	2.129	93.525	24.439	2.778	3.13	7.968	10.125	140	14.03568	3.21257	10373.34473	255.69267	229.42644	333.18466	-999	-999	-999	-999
10992.5	63.85	2.144	93.525	24.604	2.735	3.011	7.632	10.125	140	13.58226	3.1447	10373.81445	255.81819	229.54317	333.35162	1000	-999	25	2.62
10993	63.85	2.152	93.256	24.494	2.617	2.94	7.384	10.125	140	12.99595	2.96222	10374.28418	255.94374	229.65993	333.51865	3300	-999	26.8	2.63
10993.5	63.062	2.146	92.737	23.707	2.602	2.918	7.28	10.125	140	12.85329	2.93943	10374.75391	256.06931	229.77675	333.68567	-999	-999	-999	-999
10994	62.169	2.163	92.737	22.915	2.638	2.919	7.439	10.074	140	13.10522	2.99436	10375.22363	256.19492	229.8936	333.85281	-999	-999	-999	-999
10994.5	61.488	2.162	92.738	22.225	2.59	2.953	7.714	10.074	140	13.26159	2.9213	10375.69336	256.32053	230.0105	334.01996	3300	-999	27.6	2.62
10995	59.125	2.171	92.46	22.01	2.475	3.044	8.045	10.023	140	14.51551	2.74975	10376.16211	256.4462	230.12744	334.18719	-999	-999	-999	-999
10995.5	55.581	2.165	91.534	22.01	2.454	3.102	8.28	10.023	140	15.58276	2.71896	10376.63184	256.57187	230.24443	334.35446	-999	-999	-999	-999
10996	52.825	2.171	91.162	22.55	2.528	3.113	8.246	10.023	140	14.76437	2.82827	10377.10156	256.69757	230.36147	334.52176	2700	2300	27.7	2.62
10996.5	52.825	2.174	91.16	23.408	2.605	3.064	8.182	10.023	140	14.039	2.94415	10377.57129	256.8233	230.47855	334.68915	-999	-999	-999	-999
10997	53.495	2.167	91.361	23.748	2.595	3.006	8.226	10.023	140	14.18017	2.92901	10378.04102	256.94907	230.59567	334.85657	1900	-999	26.1	2.62
10997.5	54.4	2.168	92.166	24.119	2.591	3.027	8.3	10.023	140	14.40897	2.92297	10378.51074	257.07486	230.71284	335.02408	-999	-999	-999	-999
10998	53.613	2.166	92.845	24.549	2.499	3.082	8.43	10.023	140	15.74459	2.7853	10378.97949	257.20065	230.83005	335.19156	2800	-999	26.3	2.62
10998.5	54.4	2.15	93.264	24.205	2.33	3.139	8.496	10.023	140	16.23371	2.5403	10379.44922	257.32651	230.94731	335.35916	-999	-999	-999	-999
10999	56.028	2.158	93.538	23.416	2.26	3.172	8.496	10.023	140	15.42365	2.44168	10379.91895	257.45236	231.06462	335.52679	3200	-999	27.3	2.62
10999.5	57.55	2.162	93.468	22.618	2.321	3.142	8.376	10.023	140	15.76512	2.52757	10380.38867	257.57822	231.18198	335.69446	-999	-999	-999	-999
11000	58.035	2.166	93.183	22.296	2.328	3.111	8.071	10.023	140	15.04606	2.53752	10380.85742	257.70407	231.29932	335.86212	2800	-999	27.6	2.62
11000.5	58.337	2.167	92.863	22.804	2.352	3.123	7.891	10.023	140	14.46501	2.57172	10381.32715	257.82996	231.41664	336.02979	-999	-999	-999	-999
11001	58.876	2.171	92.737	23.078	2.391	3.151	7.914	10.023	140	14.51887	2.6277	10381.79688	257.95584	231.53397	336.19742	-999	-999	-999	-999
11001.5	59.125	2.174	92.737	22.857	2.335	3.18	8.029	10.023	140	14.47711	2.54753	10382.2666	258.08176	231.65129	336.36511	3600	-999	27.4	2.63
11002	59.125	2.177	92.774	22.516	2.267	3.201	8.086	10.023	140	14.20482	2.45159	10382.73535	258.20767	231.76859	336.53278	-999	-999	-999	-999
11002.5	58.164	2.192	92.542	22.655	2.157	3.168	8.02	10.023	140	13.63373	2.29955	10383.20508	258.33359	231.88588	336.70044	2200	-999	26.9	2.62
11003	57.262	2.186	91.755	23.234	2.046	3.114	7.946	10.023	128.70856	13.04862	2.14991	10383.6748	258.45953	232.00317	336.86807	-999	-999	-999	-999
11003.5	55.975	2.174	91.385	23.479	2.178	3.125	7.974	10.023	140	13.84248	2.32832	10384.14355	258.58551	232.12045	337.03574	1500	-999	26	2.62
11004	54.4	2.176	92.016	23.082	2.466	3.198	8.277	10.023	140	15.46516	2.73695	10384.61328	258.71146	232.23772	337.2034	-999	-999	-999	-999
11004.5	53.947	2.187	92.417	23.208	2.547	3.306	8.602	10.023	140	15.9558	2.85708	10385.08301	258.83743	232.35498	337.37106	-999	-999	-999	-999
11005	53.613	2.188	92.737	23.63	2.459	3.382	8.855	10.023	140	16.44197	2.72673	10385.55273	258.96344	232.47223	337.53873	2400	-999	26.9	2.62
11005.5	53.613	2.171	92.737	23.175	2.304	3.417	9.041	10.023	140	15.61154	2.50375	10386.02148	259.08942	232.58948	337.70636	1900	-999	26.8	2.62
11006	52.037	2.167	92.737	22.736	2.229	3.449	9.042	10.023	121.06824	14.87775	2.39877	10386.49121	259.21545	232.70671	337.87405	-999	-999	-999	-999
11006.5	50.462	2.162	92.737	22.12	2.204	3.466	8.992	10.023	106.43091	14.56189	2.36419	10386.96094	259.34146	232.82393	338.04166	-999	-999	-999	-999
11007	49.95	2.162	92.737	22.1	2.188	3.449	8.94	10.023	101.75104	14.42424	2.34217	10387.42969	259.4675	232.94115	338.20932	1200	-999	24.8	2.63
11007.5	49.675	2.158	92.889	22.393	2.258	3.446	8.856	10.023	140	14.7988	2.43921	10387.89941	259.59357	233.05835	338.37701	-999	-999	-999	-999
11008	50.462	2.159	93.361	22.545	2.335	3.441	8.872	10.023	140	15.35016	2.5478	10388.36914	259.71964	233.17555	338.54468	1900	-999	26.7	2.63
11008.5	52.825	2.169	93.525	22.905	2.317	3.402	8.817	10.023	140	15.30216	2.52226	10388.83887	259.8457	233.29274	338.71231	-999	-999	-999	-999
11009	52.825	2.167	93.525	22.879	2.231	3.343	8.709	10.023	140	14.76065	2.40166	10389.30762	259.9718	233.40993	338.88	2200	-999	27	2.63
11009.5	52.037	2.178	93.525	22.927	2.154	3.329	8.521	10.023	127.4585	13.95947	2.29569	10389.77734	260.0979	233.52708	339.04761	-999	-999	-999	-999
11010	52.037	2.178	93.525	23.203	2.1	3.281	8.447	10.023	102.80518	13.63004	2.22248	10390.24707	260.224	233.64426	339.21527	-999	-999	-999	-999
11010.5	52.037	2.175	93.525	23.492	2.077	3.322	8.561	10.023	71.56879	13.48867	2.19157	10390.71582	260.35013	233.7614	339.3829	2000	-999	26.1	2.63
11011	51.25	2.18	93.525	23.926	2.192	3.434	8.815	10.023	117.02869	14.32953	2.34782	10391.18555	260.47626	233.87854	339.55057	-999	-999	-999	-999
11011.5	51.957	2.175	93.525	23.689	2.351	3.552	9.249	10.023	140	15.74843	2.57075	10391.65527	260.60242	233.99568	339.71823	950	-999	26.7	2.67
11012	52.825	2.18	93.36	23.356	2.444	3.633	9.671	10.023	140	16.93862	2.7051	10392.12402	260.72858	234.11281	339.88586	-999	-999	-999	-999
11012.5	50.462	2.182	92.902	23.287	2.421	3.686	9.906	10.023	140	16.90897	2.67162	10392.59375	260.85477	234.22992	340.05356	-999	-999	-999	-999
11013	50.845	2.19	92.648	23.269	2.352	3.662	9.991	10.023	96.44513	16.39049	2.57225	10393.06348	260.98096	234.34703	340.22119	2300	-999	25.9	2.62
11013.5	51.25	2.186	92.359	23.013	2.307	3.662	9.889	10.023	71.57867	15.81967	2.50831	10393.5332	261.10715	234.46413	340.38885	-999	-999	-999	-999
11014	50.856	2.174	92.136	22.392	2.267	3.62	9.765	10.023	70.27569	15.58889	2.45205	10394.00195	261.23337	234.58121	340.55646	2000	-999	26	2.64
11014.5	50.462	2.171	91.681	21.846	2.249	3.533	9.551	10.023	72.61169	15.32444	2.42692	10394.47168	261.35959	234.69829	340.72415	-999	-999	-999	-999
11015	48.887	2.174	91.162	21.628	2.141	3.433	9.212	10.023	69.00873	14.66508	2.27817	10394.94141	261.48581	234.81537	340.89175	-999	-999	-999	-999
11015.5	48.887	2.185	91.162	22.119	2.028	3.282	8.628	10.023	66.68718	13.61338	2.12637	10395.41016	261.61206	234.93242	341.05939	-999	-999	-999	-999
11016	49.837	2.186	91.162	23.046	2.023	3.152	8.152	10.023	88.95728	13.06304	2.11975	10395.87988	261.73831	235.04948	341.22705	-999	-999	-999	-999
11016.5	51.25	2.185	91.162	23.365	2.1	3.134	7.949	10.023	140	13.30836	2.22269	10396.34961	261.86459	235.16652	341.39468	-999	-999	-999	-999
11017	52.825	2.19	91.31	23.213	2.23	3.184	8.039	10.023	140	13.98584	2.40057	10396.81836	261.99088	235.28355	341.56232	-999	-999	-999	-999
11017.5	52.825	2.182	91.778	22.878	2.288	3.277	8.163	10.023	140	14.12135	2.48167	10397.28809	262.11719	235.40057	341.72998	-999	-999	-999	-999
11018	52.825	2.176	91.681	22.183	2.256	3.319	8.183	10.023	140	13.84058	2.43682	10397.75781	262.2435	235.51759	341.89761	-999	-999	-999	-999
