~VERSION	INFORMATION										
VERS.	2	:CWLS	LOG	ASCII	STANDARD--VERSION	2					
WRAP.	YES	:MULTIPLE	LINE	PER	DEPTH	STEP					
~WELL	INFORMATION										
#MNEM.UNIT	DATA	DESCRIPTION									
#================================================											
STRT.F	10000	:START	DEPTH								
STOP.F	11856	:STOP	DEPTH								
STEP.F	0.5	:STEP									
NULL.	-999	:NULL	VALUE								
WELL.	X-5	:	WELL	NAME							
UWI.	Well	X-5	:	WELL	UWI						
API.	Well	X-5	:	WELL	API						
LOC.	UKCS	:	WELL	LOCATION							
DATE.	1994	:	WELL	DATE							
FLD.	Xf	:	Project	Name							
~CURVE	INFORMATION										
#================================================											
DEPTH	.ft	:DEPTH									
GR	.GAPI	:GR									
DENS.g/cc	:DENS										
SONI.us/f	:SONI										
CNL	.por%	:CNL									
MSFL.ohmm	:MSFL										
LL9S.ohmm	:LL9S										
LL9D.ohmm	:LL9D										
CALI.in	:CALI										
DI	.in	:DI									
RT	.ohmm	:RT									
RX0	.ohmm	:RX0									
TVD	.ft	:TVD									
Y	DEV	.ft	:Y	DEV							
X	DEV	.ft	:X	DEV							
ALPHA	.UNKN	:ALPHA									
KH	.UNKN	:KH									
KV	.UNKN	:KV									
CPOR.UNKN	:CPOR										
GD	.UNKN	:GD									
~PARAMETERS	INFORMATION										
#================================================											
ELEV.ft	78	:	TLOG	CONSTANT	-	4	-	ELEVATION			
RMC	.ohmm	3	:	TLOG	CONSTANT	-	5	-	RMC		
TRMC.degF	75	:	TLOG	CONSTANT	-	6	-	TRMC			
RM	.ohmm	3	:	TLOG	CONSTANT	-	7	-	RM		
TRM	.degF	75	:	TLOG	CONSTANT	-	8	-	TRM		
RMF	.ohmm	3	:	TLOG	CONSTANT	-	9	-	RMF		
TRMF.degF	75	:	TLOG	CONSTANT	-	10	-	TRMF			
RW	.ohmm	3	:	TLOG	CONSTANT	-	11	-	RW		
TRW	.degF	75	:	TLOG	CONSTANT	-	12	-	TRW		
BHT	.degF	120	:	TLOG	CONSTANT	-	13	-	BHT		
MEAN.degF	75	:	TLOG	CONSTANT	-	14	-	MEAN	SURF	TEMP	
ARCH.UNKN	1	:	TLOG	CONSTANT	-	16	-	ARCHIE	A		
ARCH.UNKN	2	:	TLOG	CONSTANT	-	17	-	ARCHIE	M		
SAT	.UNKN	2	:	TLOG	CONSTANT	-	18	-	SAT	EXP	(N)
R	SH.ohmm	9	:	TLOG	CONSTANT	-	19	-	R	SHALE	
TD	.ft	5000	:	TLOG	CONSTANT	-	20	-	TD		
CALI.UNKN	18	:	TLOG	CONSTANT	-	23	-	CALIPER	CHANNEL		
BIT	.in	8	:	TLOG	CONSTANT	-	24	-	BIT	SIZE	(IN)
MUD	.lb/g	8	:	TLOG	CONSTANT	-	25	-	MUD	WEIGHT(#/GL)	
FM	S.ppm	0	:	TLOG	CONSTANT	-	26	-	FM	SALINITY(PPM)	
BH	S.ppm	0	:	TLOG	CONSTANT	-	27	-	BH	SALINITY(PPM)	
STAN.in	0	:	TLOG	CONSTANT	-	28	-	STANDOFF	(IL)		
STAN.in	0	:	TLOG	CONSTANT	-	29	-	STANDOFF	(NEUT)		
O_D_.in	7	:	TLOG	CONSTANT	-	30	-	O.D.	CASING(IN)		
WT_	.lb/f	20	:	TLOG	CONSTANT	-	31	-	WT.	CASING(#/FT)	
TYPE.UNKN	0	:	TLOG	CONSTANT	-	32	-	TYPE	OF	MUD	
AUTO.UNKN	0	:	TLOG	CONSTANT	-	33	-	AUTO	CALI	CORR	
GR	M.GAPI	20	:	TLOG	CONSTANT	-	61	-	GR	MATRIX	
RHO	.g/cc	2.71	:	TLOG	CONSTANT	-	62	-	RHO	MATRIX	
DT	M.us/f	47.5	:	TLOG	CONSTANT	-	63	-	DT	MATRIX	
CNL	.pu	0	:	TLOG	CONSTANT	-	64	-	CNL	MATRIX	
GR	S.GAPI	120	:	TLOG	CONSTANT	-	65	-	GR	SHALE	
RHO	.g/cc	2.4	:	TLOG	CONSTANT	-	66	-	RHO	SHALE	
DT	S.us/f	100	:	TLOG	CONSTANT	-	67	-	DT	SHALE	
CNL	.pu	0.3	:	TLOG	CONSTANT	-	68	-	CNL	SHALE	
GR	F.GAPI	20	:	TLOG	CONSTANT	-	69	-	GR	FLUID	
RHO	.g/cc	1	:	TLOG	CONSTANT	-	70	-	RHO	FLUID	
DT	F.us/f	189	:	TLOG	CONSTANT	-	71	-	DT	FLUID	
CNL	.pu	1	:	TLOG	CONSTANT	-	72	-	CNL	FLUID	
DT	M.us/f	82	:	TLOG	CONSTANT	-	73	-	DT	MATRIX	SHALE
~A
# ...
11601	85.037	2.512	85.566	26	-999	-999	-999	13.582	12	-999	-999	10934.35059	430.14877	388.32834	562.47498	-999	-999	-999	-999
11601.5	84.352	2.501	85.65	25.54	-999	-999	-999	13.48	12	-999	-999	10934.80566	430.29944	388.46906	562.67584	-999	-999	-999	-999
11602	85.246	2.496	85.651	25.22	-999	-999	-999	13.48	12	-999	-999	10935.26172	430.45001	388.60974	562.87671	-999	-999	-999	-999
11602.5	87.697	2.49	84.946	26.42	-999	-999	-999	13.48	12	-999	-999	10935.7168	430.60056	388.75043	563.07751	-999	-999	-999	-999
11603	90.725	2.478	86.042	27.56	-999	-999	-999	13.48	12	-999	-999	10936.17285	430.75104	388.89111	563.27826	-999	-999	-999	-999
11603.5	92.082	2.489	86.71	29.06	-999	-999	-999	13.531	12	-999	-999	10936.62793	430.90143	389.0318	563.479	-999	-999	-999	-999
11604	93.189	2.493	87.593	29.64	-999	-999	-999	13.632	12	-999	-999	10937.08398	431.05176	389.17245	563.67963	-999	-999	-999	-999
11604.5	95.428	2.482	89.698	29.04	-999	-999	-999	13.632	12	-999	-999	10937.53906	431.20203	389.31311	563.88031	-999	-999	-999	-999
11605	96.179	2.467	91.637	28.04	-999	-999	-999	13.632	12	-999	-999	10937.99512	431.35223	389.45374	564.08087	-999	-999	-999	-999
11605.5	96.055	2.482	91.232	27.04	-999	-999	-999	13.582	12	-999	-999	10938.45117	431.50238	389.59436	564.28143	-999	-999	-999	-999
11606	93.953	2.494	89.779	26.32	-999	-999	-999	13.785	12	-999	-999	10938.90625	431.65247	389.73499	564.48193	-999	-999	-999	-999
11606.5	89.82	2.508	88.546	24.76	-999	-999	-999	13.327	12	-999	-999	10939.3623	431.80249	389.87558	564.68237	-999	-999	-999	-999
11607	88.535	2.504	88.072	23.44	-999	-999	-999	13.073	12	-999	-999	10939.81836	431.95245	390.01617	564.88281	-999	-999	-999	-999
11607.5	87.534	2.501	87.738	22.42	-999	-999	-999	12.921	12	-999	-999	10940.27344	432.10233	390.15677	565.08319	-999	-999	-999	-999
11608	90.655	2.51	85.644	22.1	-999	-999	-999	12.819	12	-999	-999	10940.72949	432.25217	390.29733	565.28351	-999	-999	-999	-999
11608.5	91.83	2.493	84.839	21.46	-999	-999	-999	12.768	12	-999	-999	10941.18555	432.40192	390.4379	565.48383	-999	-999	-999	-999
11609	92.997	2.501	82.59	20.64	-999	-999	-999	12.768	12	-999	-999	10941.6416	432.55161	390.57846	565.68396	-999	-999	-999	-999
11609.5	89.977	2.524	80.389	20	-999	-999	-999	12.717	12	-999	-999	10942.09766	432.70126	390.71899	565.88422	-999	-999	-999	-999
11610	88.402	2.534	78.854	19.96	-999	-999	-999	12.667	12	-999	-999	10942.55371	432.85083	390.85953	566.08435	-999	-999	-999	-999
11610.5	87.605	2.537	79.301	19.46	-999	-999	-999	12.667	12	-999	-999	10943.00977	433.00034	391.00003	566.28442	-999	-999	-999	-999
11611	85.536	2.556	78.622	18.48	-999	-999	-999	12.667	12	-999	-999	10943.46484	433.14975	391.14056	566.48444	-999	-999	-999	-999
11611.5	81.008	2.591	77.975	18.96	-999	-999	-999	12.717	12	-999	-999	10943.9209	433.29913	391.28104	566.68451	-999	-999	-999	-999
11612	79.087	2.599	78.097	20.54	-999	-999	-999	12.667	12	-999	-999	10944.37695	433.44846	391.42154	566.88446	-999	-999	-999	-999
11612.5	78.849	2.581	77.072	22.14	-999	-999	-999	12.87	12	-999	-999	10944.83301	433.59772	391.56201	567.08441	-999	-999	-999	-999
11613	80.185	2.572	74.187	23.62	-999	-999	-999	12.667	12	-999	-999	10945.28906	433.74689	391.70248	567.28424	-999	-999	-999	-999
11613.5	80.202	2.596	71.356	25.42	-999	-999	-999	12.819	12	-999	-999	10945.74512	433.896	391.84293	567.48413	-999	-999	-999	-999
11614	81.815	2.636	69.871	25.12	-999	-999	-999	12.717	12	-999	-999	10946.20215	434.04507	391.98337	567.68384	-999	-999	-999	-999
11614.5	85.799	2.664	69.112	24.44	-999	-999	-999	12.616	12	-999	-999	10946.6582	434.19406	392.12381	567.88361	-999	-999	-999	-999
11615	89.344	2.656	72.54	22.98	-999	-999	-999	12.667	12	-999	-999	10947.11426	434.34299	392.26422	568.08331	-999	-999	-999	-999
11615.5	92.393	2.656	73.828	22.78	-999	-999	-999	12.667	12	-999	-999	10947.57031	434.49185	392.40463	568.28296	-999	-999	-999	-999
11616	91.954	2.648	77.353	23.46	-999	-999	-999	12.667	12	-999	-999	10948.02637	434.64066	392.54501	568.48254	-999	-999	-999	-999
11616.5	89.944	2.628	79.095	24.64	-999	-999	-999	12.717	12	-999	-999	10948.48242	434.7894	392.68542	568.68219	-999	-999	-999	-999
11617	84.268	2.609	77.678	26.54	-999	-999	-999	12.768	12	-999	-999	10948.93945	434.93805	392.82581	568.88159	-999	-999	-999	-999
11617.5	77.556	2.594	74.946	27.16	-999	-999	-999	12.768	12	-999	-999	10949.39551	435.08667	392.96616	569.08112	-999	-999	-999	-999
11618	73.621	2.545	72.883	27.72	-999	-999	-999	12.819	12	-999	-999	10949.85156	435.23523	393.10651	569.28052	-999	-999	-999	-999
11618.5	72.367	2.521	71.701	28.28	-999	-999	-999	12.921	12	-999	-999	10950.30762	435.3837	393.24686	569.47992	-999	-999	-999	-999
11619	73.427	2.495	70.793	29.12	-999	-999	-999	12.972	12	-999	-999	10950.76465	435.5321	393.38718	569.6792	-999	-999	-999	-999
11619.5	73.828	2.481	74.333	30.4	-999	-999	-999	13.073	12	-999	-999	10951.2207	435.68048	393.5275	569.87854	-999	-999	-999	-999
11620	73.774	2.497	76.169	29.88	-999	-999	-999	13.226	12	-999	-999	10951.67676	435.82877	393.66782	570.07776	-999	-999	-999	-999
11620.5	72.327	2.497	77.511	28.04	-999	-999	-999	13.175	12	-999	-999	10952.13379	435.97699	393.80811	570.27692	-999	-999	-999	-999
11621	71.985	2.489	77.826	25.28	-999	-999	-999	13.073	12	-999	-999	10952.58984	436.12515	393.94839	570.47607	-999	-999	-999	-999
11621.5	73.164	2.469	77.257	21.76	-999	-999	-999	12.87	12	-999	-999	10953.04688	436.27325	394.08868	570.67523	-999	-999	-999	-999
11622	74.348	2.435	76.303	19.94	-999	-999	-999	12.362	12	-999	-999	10953.50293	436.42126	394.22894	570.87427	-999	-999	-999	-999
11622.5	75.709	2.385	79.297	19.18	-999	-999	-999	11.955	12	-999	-999	10953.95996	436.56924	394.3692	571.0733	-999	-999	-999	-999
11623	75.753	2.373	77.184	18.82	-999	-999	-999	11.243	12	-999	-999	10954.41602	436.71713	394.50943	571.27228	-999	-999	-999	-999
11623.5	76.753	2.397	76.392	19.56	-999	-999	-999	11.548	12	-999	-999	10954.87305	436.86499	394.64966	571.47119	-999	-999	-999	-999
11624	79.372	2.478	71.674	20.7	-999	-999	-999	12.26	12	-999	-999	10955.3291	437.01276	394.78989	571.67004	-999	-999	-999	-999
11624.5	81.884	2.523	68.4	21.34	-999	-999	-999	12.463	12	-999	-999	10955.78613	437.16049	394.93008	571.8689	-999	-999	-999	-999
11625	82.841	2.534	65.961	22.54	-999	-999	-999	12.514	12	-999	-999	10956.24316	437.30814	395.07028	572.06769	-999	-999	-999	-999
11625.5	84.423	2.517	67.371	23.76	-999	-999	-999	13.073	12	-999	-999	10956.69922	437.45572	395.21048	572.26648	-999	-999	-999	-999
11626	88.344	2.499	73.755	23.54	-999	-999	-999	13.378	12	-999	-999	10957.15625	437.60324	395.35065	572.46515	-999	-999	-999	-999
11626.5	90.705	2.502	78.423	22.92	-999	-999	-999	13.429	12	-999	-999	10957.61328	437.7507	395.49081	572.66382	-999	-999	-999	-999
11627	90.707	2.52	76.663	22.08	-999	-999	-999	13.48	12	-999	-999	10958.06934	437.8981	395.63095	572.86237	-999	-999	-999	-999
11627.5	90.68	2.53	73.1	21.2	-999	-999	-999	13.277	12	-999	-999	10958.52637	438.04541	395.77109	573.06097	-999	-999	-999	-999
11628	85.197	2.525	67.244	21.38	-999	-999	-999	13.175	12	-999	-999	10958.9834	438.19269	395.91122	573.25952	-999	-999	-999	-999
11628.5	85.198	2.516	65.242	22.58	-999	-999	-999	13.175	12	-999	-999	10959.44043	438.33987	396.05133	573.45795	-999	-999	-999	-999
11629	85.199	2.467	66.241	22.56	-999	-999	-999	12.87	12	-999	-999	10959.89746	438.48703	396.19144	573.65637	-999	-999	-999	-999
11629.5	84.318	2.406	69.333	23.2	-999	-999	-999	12.616	12	-999	-999	10960.35352	438.63409	396.33154	573.8548	-999	-999	-999	-999
11630	80.274	2.393	73.416	23.52	-999	-999	-999	12.87	12	-999	-999	10960.81055	438.7811	396.47162	574.05316	-999	-999	-999	-999
11630.5	75.264	2.421	75.898	23.38	-999	-999	-999	13.226	12	-999	-999	10961.26758	438.92804	396.61169	574.25146	-999	-999	-999	-999
11631	73.314	2.426	78.562	23.76	-999	-999	-999	13.582	12	-999	-999	10961.72461	439.07495	396.75174	574.44971	-999	-999	-999	-999
11631.5	72.749	2.41	78.562	24.62	-999	-999	-999	13.734	12	-999	-999	10962.18164	439.22174	396.89178	574.64783	-999	-999	-999	-999
11632	75.349	2.408	78.562	25.22	-999	-999	-999	13.887	12	-999	-999	10962.63867	439.3685	397.03183	574.84607	-999	-999	-999	-999
