~VERSION	INFORMATION										
VERS.	2	:CWLS	LOG	ASCII	STANDARD--VERSION	2					
WRAP.	YES	:MULTIPLE	LINE	PER	DEPTH	STEP					
~WELL	INFORMATION										
#MNEM.UNIT	DATA	DESCRIPTION									
#================================================											
STRT.F	10000	:START	DEPTH								
STOP.F	11856	:STOP	DEPTH								
STEP.F	0.5	:STEP									
NULL.	-999	:NULL	VALUE								
WELL.	X-5	:	WELL	NAME							
UWI.	Well	X-5	:	WELL	UWI						
API.	Well	X-5	:	WELL	API						
LOC.	UKCS	:	WELL	LOCATION							
DATE.	1994	:	WELL	DATE							
FLD.	Xf	:	Project	Name							
~CURVE	INFORMATION										
#================================================											
DEPTH	.ft	:DEPTH									
GR	.GAPI	:GR									
DENS.g/cc	:DENS										
SONI.us/f	:SONI										
CNL	.por%	:CNL									
MSFL.ohmm	:MSFL										
LL9S.ohmm	:LL9S										
LL9D.ohmm	:LL9D										
CALI.in	:CALI										
DI	.in	:DI									
RT	.ohmm	:RT									
RX0	.ohmm	:RX0									
TVD	.ft	:TVD									
Y	DEV	.ft	:Y	DEV							
X	DEV	.ft	:X	DEV							
ALPHA	.UNKN	:ALPHA									
KH	.UNKN	:KH									
KV	.UNKN	:KV									
CPOR.UNKN	:CPOR										
GD	.UNKN	:GD									
~PARAMETERS	INFORMATION										
#================================================											
ELEV.ft	78	:	TLOG	CONSTANT	-	4	-	ELEVATION			
RMC	.ohmm	3	:	TLOG	CONSTANT	-	5	-	RMC		
TRMC.degF	75	:	TLOG	CONSTANT	-	6	-	TRMC			
RM	.ohmm	3	:	TLOG	CONSTANT	-	7	-	RM		
TRM	.degF	75	:	TLOG	CONSTANT	-	8	-	TRM		
RMF	.ohmm	3	:	TLOG	CONSTANT	-	9	-	RMF		
TRMF.degF	75	:	TLOG	CONSTANT	-	10	-	TRMF			
RW	.ohmm	3	:	TLOG	CONSTANT	-	11	-	RW		
TRW	.degF	75	:	TLOG	CONSTANT	-	12	-	TRW		
BHT	.degF	120	:	TLOG	CONSTANT	-	13	-	BHT		
MEAN.degF	75	:	TLOG	CONSTANT	-	14	-	MEAN	SURF	TEMP	
ARCH.UNKN	1	:	TLOG	CONSTANT	-	16	-	ARCHIE	A		
ARCH.UNKN	2	:	TLOG	CONSTANT	-	17	-	ARCHIE	M		
SAT	.UNKN	2	:	TLOG	CONSTANT	-	18	-	SAT	EXP	(N)
R	SH.ohmm	9	:	TLOG	CONSTANT	-	19	-	R	SHALE	
TD	.ft	5000	:	TLOG	CONSTANT	-	20	-	TD		
CALI.UNKN	18	:	TLOG	CONSTANT	-	23	-	CALIPER	CHANNEL		
BIT	.in	8	:	TLOG	CONSTANT	-	24	-	BIT	SIZE	(IN)
MUD	.lb/g	8	:	TLOG	CONSTANT	-	25	-	MUD	WEIGHT(#/GL)	
FM	S.ppm	0	:	TLOG	CONSTANT	-	26	-	FM	SALINITY(PPM)	
BH	S.ppm	0	:	TLOG	CONSTANT	-	27	-	BH	SALINITY(PPM)	
STAN.in	0	:	TLOG	CONSTANT	-	28	-	STANDOFF	(IL)		
STAN.in	0	:	TLOG	CONSTANT	-	29	-	STANDOFF	(NEUT)		
O_D_.in	7	:	TLOG	CONSTANT	-	30	-	O.D.	CASING(IN)		
WT_	.lb/f	20	:	TLOG	CONSTANT	-	31	-	WT.	CASING(#/FT)	
TYPE.UNKN	0	:	TLOG	CONSTANT	-	32	-	TYPE	OF	MUD	
AUTO.UNKN	0	:	TLOG	CONSTANT	-	33	-	AUTO	CALI	CORR	
GR	M.GAPI	20	:	TLOG	CONSTANT	-	61	-	GR	MATRIX	
RHO	.g/cc	2.71	:	TLOG	CONSTANT	-	62	-	RHO	MATRIX	
DT	M.us/f	47.5	:	TLOG	CONSTANT	-	63	-	DT	MATRIX	
CNL	.pu	0	:	TLOG	CONSTANT	-	64	-	CNL	MATRIX	
GR	S.GAPI	120	:	TLOG	CONSTANT	-	65	-	GR	SHALE	
RHO	.g/cc	2.4	:	TLOG	CONSTANT	-	66	-	RHO	SHALE	
DT	S.us/f	100	:	TLOG	CONSTANT	-	67	-	DT	SHALE	
CNL	.pu	0.3	:	TLOG	CONSTANT	-	68	-	CNL	SHALE	
GR	F.GAPI	20	:	TLOG	CONSTANT	-	69	-	GR	FLUID	
RHO	.g/cc	1	:	TLOG	CONSTANT	-	70	-	RHO	FLUID	
DT	F.us/f	189	:	TLOG	CONSTANT	-	71	-	DT	FLUID	
CNL	.pu	1	:	TLOG	CONSTANT	-	72	-	CNL	FLUID	
DT	M.us/f	82	:	TLOG	CONSTANT	-	73	-	DT	MATRIX	SHALE
~A
# ...
11319.5	45.693	2.302	85.048	20.84	-999	-999	-999	10.328	12	-999	-999	10678.95117	342.42093	308.82785	447.50925	-999	-999	-999	-999
11320	46.12	2.311	85.591	20.64	-999	-999	-999	10.328	12	-999	-999	10679.40918	342.57013	308.96222	447.70407	-999	-999	-999	-999
11320.5	48.134	2.321	85.59	20.4	-999	-999	-999	10.328	12	-999	-999	10679.86719	342.71945	309.09668	447.89905	-999	-999	-999	-999
11321	48.932	2.341	85.559	20.16	-999	-999	-999	10.328	12	-999	-999	10680.3252	342.8689	309.2312	448.09412	-999	-999	-999	-999
11321.5	48.303	2.333	84.765	20.46	-999	-999	-999	10.328	12	-999	-999	10680.7832	343.0184	309.36584	448.28934	-999	-999	-999	-999
11322	48.692	2.333	84.256	20.22	-999	-999	-999	10.328	12	-999	-999	10681.24023	343.16803	309.50055	448.48471	-999	-999	-999	-999
11322.5	48.887	2.329	83.879	19.84	-999	-999	-999	10.328	12	-999	-999	10681.69824	343.31775	309.63535	448.68018	-999	-999	-999	-999
11323	48.887	2.317	83.151	19.56	-999	-999	-999	10.328	12	-999	-999	10682.15625	343.46756	309.77026	448.87582	-999	-999	-999	-999
11323.5	49.351	2.335	82.716	19.74	-999	-999	-999	10.328	12	-999	-999	10682.61328	343.61749	309.90524	449.07156	-999	-999	-999	-999
11324	50.927	2.343	82.733	19.86	-999	-999	-999	10.328	12	-999	-999	10683.07129	343.76749	310.04031	449.26743	-999	-999	-999	-999
11324.5	51.25	2.343	83.619	20	-999	-999	-999	10.328	12	-999	-999	10683.52832	343.9176	310.17548	449.46341	-999	-999	-999	-999
11325	51.25	2.329	83.938	20.16	-999	-999	-999	10.328	12	-999	-999	10683.98535	344.06784	310.31076	449.65958	-999	-999	-999	-999
11325.5	49.686	2.341	84.701	19.82	-999	-999	-999	10.328	12	-999	-999	10684.44238	344.21814	310.44611	449.85583	-999	-999	-999	-999
11326	46.258	2.358	83.92	19.14	-999	-999	-999	10.328	12	-999	-999	10684.90039	344.36856	310.58154	450.05222	-999	-999	-999	-999
11326.5	45.738	2.362	82.236	18.88	-999	-999	-999	10.328	12	-999	-999	10685.35742	344.5191	310.71707	450.24878	-999	-999	-999	-999
11327	45.738	2.369	80.529	18.92	-999	-999	-999	10.328	12	-999	-999	10685.81445	344.66971	310.85269	450.4454	-999	-999	-999	-999
11327.5	47.708	2.376	79.809	19.62	-999	-999	-999	10.328	12	-999	-999	10686.27148	344.82043	310.98837	450.64218	-999	-999	-999	-999
11328	48.344	2.379	79.305	20.42	-999	-999	-999	10.328	12	-999	-999	10686.72852	344.97125	311.12418	450.83911	-999	-999	-999	-999
11328.5	48.848	2.381	80.122	20.4	-999	-999	-999	10.328	12	-999	-999	10687.18555	345.12216	311.26007	451.03616	-999	-999	-999	-999
11329	47.343	2.353	80.684	20.6	-999	-999	-999	10.328	12	-999	-999	10687.64258	345.27316	311.39606	451.23334	-999	-999	-999	-999
11329.5	43.466	2.334	82.182	19.98	-999	-999	-999	10.328	12	-999	-999	10688.09863	345.42429	311.5321	451.43063	-999	-999	-999	-999
11330	40.691	2.29	83.873	19.66	-999	-999	-999	10.328	12	-999	-999	10688.55566	345.5755	311.66827	451.62805	-999	-999	-999	-999
11330.5	37.948	2.257	84.707	19.66	-999	-999	-999	10.328	12	-999	-999	10689.0127	345.72684	311.8045	451.82565	-999	-999	-999	-999
11331	35.764	2.238	85.51	20.42	-999	-999	-999	10.328	12	-999	-999	10689.46875	345.87823	311.94086	452.02332	-999	-999	-999	-999
11331.5	34.153	2.235	87.101	21.46	-999	-999	-999	10.328	12	-999	-999	10689.92578	346.02975	312.07727	452.22116	-999	-999	-999	-999
11332	33.137	2.222	87.734	22.66	-999	-999	-999	10.328	12	-999	-999	10690.38184	346.18137	312.21378	452.41913	-999	-999	-999	-999
11332.5	33.137	2.214	88.343	23.6	-999	-999	-999	10.328	12	-999	-999	10690.83887	346.3331	312.3504	452.61722	-999	-999	-999	-999
11333	33.253	2.216	88.706	24.32	-999	-999	-999	10.328	12	-999	-999	10691.29492	346.48489	312.48709	452.81543	-999	-999	-999	-999
11333.5	34.96	2.221	88.704	24.62	-999	-999	-999	10.328	12	-999	-999	10691.75098	346.63681	312.62387	453.01376	-999	-999	-999	-999
11334	37.859	2.222	88.697	24.24	-999	-999	-999	10.328	12	-999	-999	10692.20703	346.78882	312.76074	453.21225	-999	-999	-999	-999
11334.5	37.565	2.231	87.914	23.8	-999	-999	-999	10.328	12	-999	-999	10692.66406	346.94095	312.89771	453.41089	-999	-999	-999	-999
11335	37.076	2.231	87.913	23.6	-999	-999	-999	10.328	12	-999	-999	10693.12012	347.09317	313.03476	453.60962	-999	-999	-999	-999
11335.5	37.494	2.226	87.911	22.96	-999	-999	-999	10.328	12	-999	-999	10693.57617	347.24548	313.17191	453.80847	-999	-999	-999	-999
11336	37.773	2.244	87.91	22.88	-999	-999	-999	10.328	12	-999	-999	10694.03223	347.39789	313.30914	454.00748	-999	-999	-999	-999
11336.5	39.336	2.242	87.909	23.04	-999	-999	-999	10.328	12	-999	-999	10694.48828	347.55038	313.44647	454.2066	-999	-999	-999	-999
11337	38.635	2.229	87.907	23.36	-999	-999	-999	10.328	12	-999	-999	10694.94434	347.703	313.58386	454.40585	-999	-999	-999	-999
11337.5	37.555	2.226	87.906	22.98	-999	-999	-999	10.328	12	-999	-999	10695.39941	347.85571	313.72137	454.60526	-999	-999	-999	-999
11338	36.602	2.23	87.917	22.38	-999	-999	-999	10.328	12	-999	-999	10695.85547	348.00851	313.85898	454.80481	-999	-999	-999	-999
11338.5	35.797	2.231	88.141	22.48	-999	-999	-999	10.328	12	-999	-999	10696.31152	348.16144	313.99664	455.00443	-999	-999	-999	-999
11339	35.5	2.226	88.476	23.38	-999	-999	-999	10.328	12	-999	-999	10696.7666	348.31445	314.13443	455.20419	-999	-999	-999	-999
11339.5	35.5	2.215	88.689	23.58	-999	-999	-999	10.328	12	-999	-999	10697.22266	348.46756	314.27228	455.40411	-999	-999	-999	-999
11340	35.908	2.222	88.687	23.02	-999	-999	-999	10.328	12	-999	-999	10697.67773	348.62076	314.41022	455.60416	-999	-999	-999	-999
11340.5	37.075	2.224	88.687	22.82	-999	-999	-999	10.328	12	-999	-999	10698.13379	348.77408	314.54828	455.80429	-999	-999	-999	-999
11341	37.075	2.22	88.625	21.48	-999	-999	-999	10.328	12	-999	-999	10698.58887	348.92749	314.6864	456.00464	-999	-999	-999	-999
11341.5	37.075	2.224	88.219	21.28	-999	-999	-999	10.379	12	-999	-999	10699.04395	349.08099	314.82462	456.20502	-999	-999	-999	-999
11342	37.06	2.24	87.842	21.12	-999	-999	-999	10.328	12	-999	-999	10699.5	349.23459	314.96292	456.40558	-999	-999	-999	-999
11342.5	36.287	2.242	87.561	21.48	-999	-999	-999	10.328	12	-999	-999	10699.95508	349.38831	315.10132	456.60629	-999	-999	-999	-999
11343	36.287	2.245	87.267	22.26	-999	-999	-999	10.328	12	-999	-999	10700.41016	349.54211	315.23981	456.8071	-999	-999	-999	-999
11343.5	36.287	2.25	87.176	22.48	-999	-999	-999	10.328	12	-999	-999	10700.86523	349.69601	315.37839	457.00806	-999	-999	-999	-999
11344	37.797	2.264	87.463	22.96	-999	-999	-999	10.379	12	-999	-999	10701.32031	349.85001	315.51706	457.20911	-999	-999	-999	-999
11344.5	37.218	2.248	87.742	22.86	-999	-999	-999	10.379	12	-999	-999	10701.77539	350.00412	315.65579	457.41034	-999	-999	-999	-999
11345	36.503	2.242	87.886	22.92	-999	-999	-999	10.379	12	-999	-999	10702.23047	350.15833	315.79465	457.61166	-999	-999	-999	-999
11345.5	36.232	2.23	87.885	22.7	-999	-999	-999	10.379	12	-999	-999	10702.68555	350.31262	315.93359	457.81317	-999	-999	-999	-999
11346	37.333	2.23	87.884	22.74	-999	-999	-999	10.379	12	-999	-999	10703.13965	350.46704	316.0726	458.01474	-999	-999	-999	-999
11346.5	37.569	2.227	87.882	22.34	-999	-999	-999	10.379	12	-999	-999	10703.59473	350.62152	316.21173	458.21646	-999	-999	-999	-999
11347	36.789	2.225	87.881	22.8	-999	-999	-999	10.379	12	-999	-999	10704.0498	350.77612	316.35092	458.41833	-999	-999	-999	-999
11347.5	36.968	2.234	87.879	23.24	-999	-999	-999	10.379	12	-999	-999	10704.50391	350.93085	316.49023	458.62033	-999	-999	-999	-999
11348	38.865	2.239	87.878	23.24	-999	-999	-999	10.379	12	-999	-999	10704.95898	351.08563	316.62961	458.82245	-999	-999	-999	-999
11348.5	39.99	2.245	87.877	23.4	-999	-999	-999	10.379	12	-999	-999	10705.41309	351.24054	316.76907	459.02469	-999	-999	-999	-999
11349	40.997	2.239	87.875	22.8	-999	-999	-999	10.379	12	-999	-999	10705.86816	351.39554	316.90863	459.22705	-999	-999	-999	-999
11349.5	41.061	2.253	87.877	22.76	-999	-999	-999	10.379	12	-999	-999	10706.32227	351.55063	317.04828	459.42953	-999	-999	-999	-999
11350	41.766	2.246	87.423	22.56	-999	-999	-999	10.379	12	-999	-999	10706.77637	351.70584	317.18802	459.63223	-999	-999	-999	-999
