~VERSION	INFORMATION										
VERS.	2	:CWLS	LOG	ASCII	STANDARD--VERSION	2					
WRAP.	YES	:MULTIPLE	LINE	PER	DEPTH	STEP					
~WELL	INFORMATION										
#MNEM.UNIT	DATA	DESCRIPTION									
#================================================											
STRT.F	10000	:START	DEPTH								
STOP.F	11856	:STOP	DEPTH								
STEP.F	0.5	:STEP									
NULL.	-999	:NULL	VALUE								
WELL.	X-5	:	WELL	NAME							
UWI.	Well	X-5	:	WELL	UWI						
API.	Well	X-5	:	WELL	API						
LOC.	UKCS	:	WELL	LOCATION							
DATE.	1994	:	WELL	DATE							
FLD.	Xf	:	Project	Name							
~CURVE	INFORMATION										
#================================================											
DEPTH	.ft	:DEPTH									
GR	.GAPI	:GR									
DENS.g/cc	:DENS										
SONI.us/f	:SONI										
CNL	.por%	:CNL									
MSFL.ohmm	:MSFL										
LL9S.ohmm	:LL9S										
LL9D.ohmm	:LL9D										
CALI.in	:CALI										
DI	.in	:DI									
RT	.ohmm	:RT									
RX0	.ohmm	:RX0									
TVD	.ft	:TVD									
Y	DEV	.ft	:Y	DEV							
X	DEV	.ft	:X	DEV							
ALPHA	.UNKN	:ALPHA									
KH	.UNKN	:KH									
KV	.UNKN	:KV									
CPOR.UNKN	:CPOR										
GD	.UNKN	:GD									
~PARAMETERS	INFORMATION										
#================================================											
ELEV.ft	78	:	TLOG	CONSTANT	-	4	-	ELEVATION			
RMC	.ohmm	3	:	TLOG	CONSTANT	-	5	-	RMC		
TRMC.degF	75	:	TLOG	CONSTANT	-	6	-	TRMC			
RM	.ohmm	3	:	TLOG	CONSTANT	-	7	-	RM		
TRM	.degF	75	:	TLOG	CONSTANT	-	8	-	TRM		
RMF	.ohmm	3	:	TLOG	CONSTANT	-	9	-	RMF		
TRMF.degF	75	:	TLOG	CONSTANT	-	10	-	TRMF			
RW	.ohmm	3	:	TLOG	CONSTANT	-	11	-	RW		
TRW	.degF	75	:	TLOG	CONSTANT	-	12	-	TRW		
BHT	.degF	120	:	TLOG	CONSTANT	-	13	-	BHT		
MEAN.degF	75	:	TLOG	CONSTANT	-	14	-	MEAN	SURF	TEMP	
ARCH.UNKN	1	:	TLOG	CONSTANT	-	16	-	ARCHIE	A		
ARCH.UNKN	2	:	TLOG	CONSTANT	-	17	-	ARCHIE	M		
SAT	.UNKN	2	:	TLOG	CONSTANT	-	18	-	SAT	EXP	(N)
R	SH.ohmm	9	:	TLOG	CONSTANT	-	19	-	R	SHALE	
TD	.ft	5000	:	TLOG	CONSTANT	-	20	-	TD		
CALI.UNKN	18	:	TLOG	CONSTANT	-	23	-	CALIPER	CHANNEL		
BIT	.in	8	:	TLOG	CONSTANT	-	24	-	BIT	SIZE	(IN)
MUD	.lb/g	8	:	TLOG	CONSTANT	-	25	-	MUD	WEIGHT(#/GL)	
FM	S.ppm	0	:	TLOG	CONSTANT	-	26	-	FM	SALINITY(PPM)	
BH	S.ppm	0	:	TLOG	CONSTANT	-	27	-	BH	SALINITY(PPM)	
STAN.in	0	:	TLOG	CONSTANT	-	28	-	STANDOFF	(IL)		
STAN.in	0	:	TLOG	CONSTANT	-	29	-	STANDOFF	(NEUT)		
O_D_.in	7	:	TLOG	CONSTANT	-	30	-	O.D.	CASING(IN)		
WT_	.lb/f	20	:	TLOG	CONSTANT	-	31	-	WT.	CASING(#/FT)	
TYPE.UNKN	0	:	TLOG	CONSTANT	-	32	-	TYPE	OF	MUD	
AUTO.UNKN	0	:	TLOG	CONSTANT	-	33	-	AUTO	CALI	CORR	
GR	M.GAPI	20	:	TLOG	CONSTANT	-	61	-	GR	MATRIX	
RHO	.g/cc	2.71	:	TLOG	CONSTANT	-	62	-	RHO	MATRIX	
DT	M.us/f	47.5	:	TLOG	CONSTANT	-	63	-	DT	MATRIX	
CNL	.pu	0	:	TLOG	CONSTANT	-	64	-	CNL	MATRIX	
GR	S.GAPI	120	:	TLOG	CONSTANT	-	65	-	GR	SHALE	
RHO	.g/cc	2.4	:	TLOG	CONSTANT	-	66	-	RHO	SHALE	
DT	S.us/f	100	:	TLOG	CONSTANT	-	67	-	DT	SHALE	
CNL	.pu	0.3	:	TLOG	CONSTANT	-	68	-	CNL	SHALE	
GR	F.GAPI	20	:	TLOG	CONSTANT	-	69	-	GR	FLUID	
RHO	.g/cc	1	:	TLOG	CONSTANT	-	70	-	RHO	FLUID	
DT	F.us/f	189	:	TLOG	CONSTANT	-	71	-	DT	FLUID	
CNL	.pu	1	:	TLOG	CONSTANT	-	72	-	CNL	FLUID	
DT	M.us/f	82	:	TLOG	CONSTANT	-	73	-	DT	MATRIX	SHALE
~A
# ...
10818	70.15	2.308	86.706	21.983	1.517	1.508	1.642	11.091	22.61612	1.96472	1.31142	10209.10547	213.16348	190.79428	277.37515	-999	-999	-999	-999
10818.5	67.787	2.276	88.291	22.301	1.393	1.443	1.603	11.091	24.89117	1.94968	1.19688	10209.58008	213.28136	190.90042	277.52902	77	-999	23.3	2.65
10819	66.159	2.258	89.179	23.076	1.293	1.424	1.563	11.091	23.50021	1.8825	1.10501	10210.05469	213.39928	191.00659	277.68301	-999	-999	-999	-999
10819.5	64.637	2.259	90.023	22.681	1.461	1.426	1.552	11.091	22.30377	1.85405	1.25962	10210.52832	213.51724	191.11281	277.83701	-999	-999	-999	-999
10820	63.062	2.277	90.459	22.668	1.703	1.451	1.589	11.091	14.77	1.81667	1.48444	10211.00293	213.63524	191.21906	277.99109	3.6	-999	12.3	2.66
10820.5	62.275	2.286	89.985	23.537	1.875	1.495	1.633	11.091	14.77	1.86651	1.64558	10211.47656	213.75328	191.32533	278.1452	-999	-999	-999	-999
10821	63.276	2.299	88.825	23.184	2.022	1.553	1.681	11.091	14.77	1.92083	1.78411	10211.95117	213.87137	191.43167	278.29938	21	-999	18.9	2.66
10821.5	63.85	2.307	87.235	21.493	2.105	1.597	1.745	11.091	14.77	1.99317	1.86264	10212.4248	213.9895	191.53802	278.45364	-999	-999	-999	-999
10822	66.212	2.312	85.562	20.465	2.109	1.633	1.789	11.091	14.77	2.04285	1.86644	10212.89844	214.10768	191.64444	278.60794	4.8	0.7	17.3	2.66
10822.5	67.066	2.318	84.81	20.38	2.05	1.602	1.75	11.091	14.77	1.99881	1.81059	10213.37305	214.22589	191.75087	278.76227	-999	-999	-999	-999
10823	67.787	2.33	85.109	20.401	1.769	1.548	1.699	11.091	14.77	1.94118	1.54616	10213.84668	214.34415	191.85736	278.91666	24	-999	19.8	2.65
10823.5	68.575	2.317	86.141	20.723	1.678	1.515	1.679	11.091	14.77	1.91856	1.46113	10214.32129	214.46245	191.96387	279.07117	-999	-999	-999	-999
10824	67.787	2.304	87.901	20.992	1.749	1.52	1.699	11.091	14.77	1.94118	1.52745	10214.79492	214.5808	192.07043	279.22565	6.3	-999	18.2	2.66
10824.5	67.787	2.297	88.8	21.722	1.754	1.548	1.727	11.091	14.77	1.97283	1.53213	10215.26855	214.69917	192.17702	279.38022	6.6	-999	18	2.66
10825	69.363	2.296	88.8	21.903	1.759	1.602	1.774	11.091	14.77	2.02591	1.53682	10215.74219	214.8176	192.28366	279.53485	-999	-999	-999	-999
10825.5	70.937	2.319	88.8	22.215	1.82	1.666	1.879	11.04	15.88823	2.15464	1.60264	10216.2168	214.93607	192.39032	279.68951	42	-999	23.5	2.65
10826	71.21	2.32	88.479	21.713	1.922	1.724	1.927	11.04	14.77	2.19656	1.69941	10216.69043	215.05458	192.49704	279.84427	-999	-999	-999	-999
10826.5	71.725	2.322	87.619	21.602	1.952	1.732	1.917	10.989	14.77	2.18347	1.73839	10217.16406	215.17314	192.60378	279.99908	-999	-999	-999	-999
10827	72.512	2.307	87.336	21.716	1.81	1.727	1.899	10.989	17.1265	2.18979	1.60227	10217.63867	215.29173	192.71057	280.1539	66	-999	21	2.65
10827.5	71.823	2.303	87.776	21.56	1.768	1.716	1.881	10.938	18.27151	2.18137	1.57136	10218.1123	215.41037	192.81738	280.30881	-999	-999	-999	-999
10828	70.937	2.302	88.012	21.361	1.845	1.721	1.876	10.989	14.77	2.13735	1.63575	10218.58594	215.52905	192.92426	280.46378	74	-999	21.7	2.65
10828.5	68.575	2.303	88.012	21.451	1.835	1.702	1.871	10.989	14.77	2.13172	1.62619	10219.05957	215.64778	193.03114	280.61877	-999	-999	-999	-999
10829	68.575	2.294	88.012	21.603	1.784	1.66	1.825	10.989	14.77	2.07994	1.57744	10219.5332	215.76654	193.13809	280.77386	-999	-999	-999	-999
10829.5	67.142	2.288	88.397	21.714	1.744	1.628	1.779	10.989	14.77	2.02811	1.53929	10220.00684	215.88536	193.24506	280.92899	-999	-999	-999	-999
10830	66.212	2.288	88.8	21.809	1.804	1.609	1.746	10.989	14.77	1.9909	1.59655	10220.48047	216.00421	193.35208	281.08414	130	-999	28.3	2.67
10830.5	63.85	2.278	88.8	21.652	1.868	1.587	1.741	10.938	14.77	1.98355	1.66801	10220.95508	216.12309	193.45912	281.23938	-999	-999	-999	-999
10831	63.062	2.272	88.636	21.304	1.893	1.606	1.773	10.938	14.77	2.01961	1.69223	10221.42871	216.24203	193.56622	281.39468	130	-999	22.3	2.64
10831.5	63.062	2.272	88.239	21.114	1.87	1.631	1.773	10.938	14.77	2.01961	1.66995	10221.90234	216.36101	193.67336	281.55002	-999	-999	-999	-999
10832	63.062	2.272	87.875	20.84	1.778	1.623	1.745	10.938	14.77	1.98805	1.58103	10222.37598	216.48004	193.78052	281.70544	100	-999	22.3	2.65
10832.5	61.488	2.289	87.403	20.109	1.685	1.608	1.696	11.04	14.77	1.93613	1.47521	10222.84961	216.59911	193.88773	281.8609	-999	-999	-999	-999
10833	61.488	2.302	87.369	19.542	1.615	1.565	1.631	11.091	15.15723	1.86781	1.40249	10223.32324	216.7182	193.99496	282.01639	-999	-999	-999	-999
10833.5	62.583	2.299	87.811	19.887	1.589	1.519	1.598	11.091	14.78989	1.82704	1.37831	10223.79688	216.83736	194.10225	282.17197	95	-999	20.3	2.64
10834	63.062	2.286	88.012	20.54	1.624	1.504	1.567	11.091	14.77	1.79172	1.41087	10224.27051	216.95654	194.20956	282.32758	-999	-999	-999	-999
10834.5	63.545	2.265	88.012	20.905	1.703	1.504	1.546	11.091	14.77	1.76791	1.48452	10224.74414	217.07578	194.31693	282.48325	110	-999	21.5	2.64
10835	63.85	2.254	88.012	21.202	1.712	1.477	1.518	11.091	14.77	1.73614	1.49293	10225.2168	217.19505	194.42432	282.63901	-999	-999	-999	-999
10835.5	63.85	2.272	88.012	21.308	1.563	1.376	1.414	11.192	14.77	1.62074	1.34235	10225.69043	217.31438	194.53175	282.79477	220	-999	23.3	2.64
10836	66.212	2.283	88.012	20.41	1.375	1.223	1.237	11.192	14.77	1.41871	1.1712	10226.16406	217.43373	194.63922	282.95062	-999	-999	-999	-999
10836.5	67	2.294	87.302	20.16	1.243	1.068	1.063	11.243	14.77	1.22032	1.0484	10226.6377	217.55313	194.74673	283.10654	190	-999	22.1	2.64
10837	68.575	2.276	86.368	20.043	1.173	0.938	0.945	11.294	14.77	1.08539	0.98291	10227.11133	217.67258	194.85428	283.26248	-999	-999	-999	-999
10837.5	69.363	2.277	85.932	20.18	1.128	0.85	0.87	11.294	12	0.93427	0.94303	10227.58496	217.79207	194.96187	283.41849	-999	-999	-999	-999
10838	69.363	2.278	85.65	20.781	1.079	0.792	0.808	11.294	32.52531	0.86292	0.89972	10228.05762	217.91159	195.0695	283.57455	370	-999	24	2.64
10838.5	65.425	2.271	85.65	21.058	1.029	0.759	0.763	11.294	92.3427	0.8011	0.85563	10228.53125	218.03117	195.17715	283.73068	-999	-999	-999	-999
10839	65.425	2.266	85.807	20.887	1.012	0.736	0.744	11.345	58.83	0.78504	0.83864	10229.00488	218.15079	195.28487	283.88687	670	-999	27.3	2.64
10839.5	65.425	2.266	86.25	20.605	1.021	0.712	0.719	11.345	12	0.75673	0.84652	10229.47852	218.27045	195.39261	284.04312	160	-999	21.6	2.65
10840	65.425	2.267	86.437	20.706	1.008	0.695	0.69	11.345	22.33084	0.71163	0.83514	10229.95117	218.39014	195.50038	284.19937	-999	-999	-999	-999
10840.5	66.425	2.271	86.437	20.399	1.002	0.695	0.694	11.345	20.31528	0.72055	0.82989	10230.4248	218.50989	195.6082	284.35574	-999	-999	-999	-999
10841	67	2.289	86.437	20.07	1.035	0.711	0.696	11.345	30.70798	0.70658	0.85879	10230.89844	218.62967	195.71605	284.51212	240	140	22.1	2.64
10841.5	70.15	2.291	86.089	20.233	1.12	0.732	0.719	11.345	12	0.73405	0.93345	10231.37109	218.7495	195.82394	284.66858	290	-999	22.3	2.64
10842	73.3	2.303	85.58	19.92	1.218	0.761	0.764	11.345	12	0.80129	1.0199	10231.84473	218.86935	195.93187	284.82507	-999	-999	-999	-999
10842.5	73.3	2.309	85.346	19.442	1.295	0.768	0.777	11.345	12	0.82201	1.08809	10232.31836	218.98927	196.03984	284.98163	210	-999	21.6	2.64
10843	72.846	2.311	85.047	19.156	1.231	0.756	0.766	11.345	12	0.81115	1.0314	10232.79102	219.10922	196.14784	285.13824	-999	-999	-999	-999
10843.5	72.512	2.309	84.862	19.256	1.113	0.758	0.756	11.345	12	0.787	0.9273	10233.26465	219.22922	196.25589	285.29495	-999	-999	-999	-999
10844	71.725	2.312	85.247	19.374	1.073	0.759	0.746	11.396	48.71539	0.76366	0.88995	10233.7373	219.34926	196.36398	285.45163	-999	-999	-999	-999
10844.5	71.725	2.316	85.65	18.62	1.134	0.778	0.763	11.396	25.55057	0.77987	0.94334	10234.21094	219.46935	196.47211	285.60846	320	-999	22.2	2.64
10845	71.725	2.326	85.65	18.032	1.191	0.814	0.808	11.497	15.06234	0.83953	0.98852	10234.68359	219.58946	196.58026	285.76529	-999	-999	-999	-999
10845.5	74.087	2.317	85.65	17.732	1.184	0.843	0.844	11.548	40.97824	0.88669	0.98024	10235.15723	219.70963	196.68846	285.92221	170	-999	21	2.64
10846	74.087	2.321	85.65	17.642	1.22	0.873	0.883	11.65	41.63924	0.93926	1.00743	10235.62988	219.82983	196.79669	286.07913	-999	-999	-999	-999
