~VERSION	INFORMATION										
VERS.	2	:CWLS	LOG	ASCII	STANDARD--VERSION	2					
WRAP.	YES	:MULTIPLE	LINE	PER	DEPTH	STEP					
~WELL	INFORMATION										
#MNEM.UNIT	DATA	DESCRIPTION									
#================================================											
STRT.F	10000	:START	DEPTH								
STOP.F	11856	:STOP	DEPTH								
STEP.F	0.5	:STEP									
NULL.	-999	:NULL	VALUE								
WELL.	X-5	:	WELL	NAME							
UWI.	Well	X-5	:	WELL	UWI						
API.	Well	X-5	:	WELL	API						
LOC.	UKCS	:	WELL	LOCATION							
DATE.	1994	:	WELL	DATE							
FLD.	Xf	:	Project	Name							
~CURVE	INFORMATION										
#================================================											
DEPTH	.ft	:DEPTH									
GR	.GAPI	:GR									
DENS.g/cc	:DENS										
SONI.us/f	:SONI										
CNL	.por%	:CNL									
MSFL.ohmm	:MSFL										
LL9S.ohmm	:LL9S										
LL9D.ohmm	:LL9D										
CALI.in	:CALI										
DI	.in	:DI									
RT	.ohmm	:RT									
RX0	.ohmm	:RX0									
TVD	.ft	:TVD									
Y	DEV	.ft	:Y	DEV							
X	DEV	.ft	:X	DEV							
ALPHA	.UNKN	:ALPHA									
KH	.UNKN	:KH									
KV	.UNKN	:KV									
CPOR.UNKN	:CPOR										
GD	.UNKN	:GD									
~PARAMETERS	INFORMATION										
#================================================											
ELEV.ft	78	:	TLOG	CONSTANT	-	4	-	ELEVATION			
RMC	.ohmm	3	:	TLOG	CONSTANT	-	5	-	RMC		
TRMC.degF	75	:	TLOG	CONSTANT	-	6	-	TRMC			
RM	.ohmm	3	:	TLOG	CONSTANT	-	7	-	RM		
TRM	.degF	75	:	TLOG	CONSTANT	-	8	-	TRM		
RMF	.ohmm	3	:	TLOG	CONSTANT	-	9	-	RMF		
TRMF.degF	75	:	TLOG	CONSTANT	-	10	-	TRMF			
RW	.ohmm	3	:	TLOG	CONSTANT	-	11	-	RW		
TRW	.degF	75	:	TLOG	CONSTANT	-	12	-	TRW		
BHT	.degF	120	:	TLOG	CONSTANT	-	13	-	BHT		
MEAN.degF	75	:	TLOG	CONSTANT	-	14	-	MEAN	SURF	TEMP	
ARCH.UNKN	1	:	TLOG	CONSTANT	-	16	-	ARCHIE	A		
ARCH.UNKN	2	:	TLOG	CONSTANT	-	17	-	ARCHIE	M		
SAT	.UNKN	2	:	TLOG	CONSTANT	-	18	-	SAT	EXP	(N)
R	SH.ohmm	9	:	TLOG	CONSTANT	-	19	-	R	SHALE	
TD	.ft	5000	:	TLOG	CONSTANT	-	20	-	TD		
CALI.UNKN	18	:	TLOG	CONSTANT	-	23	-	CALIPER	CHANNEL		
BIT	.in	8	:	TLOG	CONSTANT	-	24	-	BIT	SIZE	(IN)
MUD	.lb/g	8	:	TLOG	CONSTANT	-	25	-	MUD	WEIGHT(#/GL)	
FM	S.ppm	0	:	TLOG	CONSTANT	-	26	-	FM	SALINITY(PPM)	
BH	S.ppm	0	:	TLOG	CONSTANT	-	27	-	BH	SALINITY(PPM)	
STAN.in	0	:	TLOG	CONSTANT	-	28	-	STANDOFF	(IL)		
STAN.in	0	:	TLOG	CONSTANT	-	29	-	STANDOFF	(NEUT)		
O_D_.in	7	:	TLOG	CONSTANT	-	30	-	O.D.	CASING(IN)		
WT_	.lb/f	20	:	TLOG	CONSTANT	-	31	-	WT.	CASING(#/FT)	
TYPE.UNKN	0	:	TLOG	CONSTANT	-	32	-	TYPE	OF	MUD	
AUTO.UNKN	0	:	TLOG	CONSTANT	-	33	-	AUTO	CALI	CORR	
GR	M.GAPI	20	:	TLOG	CONSTANT	-	61	-	GR	MATRIX	
RHO	.g/cc	2.71	:	TLOG	CONSTANT	-	62	-	RHO	MATRIX	
DT	M.us/f	47.5	:	TLOG	CONSTANT	-	63	-	DT	MATRIX	
CNL	.pu	0	:	TLOG	CONSTANT	-	64	-	CNL	MATRIX	
GR	S.GAPI	120	:	TLOG	CONSTANT	-	65	-	GR	SHALE	
RHO	.g/cc	2.4	:	TLOG	CONSTANT	-	66	-	RHO	SHALE	
DT	S.us/f	100	:	TLOG	CONSTANT	-	67	-	DT	SHALE	
CNL	.pu	0.3	:	TLOG	CONSTANT	-	68	-	CNL	SHALE	
GR	F.GAPI	20	:	TLOG	CONSTANT	-	69	-	GR	FLUID	
RHO	.g/cc	1	:	TLOG	CONSTANT	-	70	-	RHO	FLUID	
DT	F.us/f	189	:	TLOG	CONSTANT	-	71	-	DT	FLUID	
CNL	.pu	1	:	TLOG	CONSTANT	-	72	-	CNL	FLUID	
DT	M.us/f	82	:	TLOG	CONSTANT	-	73	-	DT	MATRIX	SHALE
~A
# ...
10561	15.144	2.707	54.15	0.94	14.008	10.368	11.211	14.802	14.77	12.54788	11.64852	9963.94629	154.95114	140.29034	202.95355	-999	-999	-999	-999
10561.5	14.238	2.7	54.15	0.993	14.21	11.157	12.045	14.751	14.77	13.43074	11.82313	9964.4248	155.06142	140.38286	203.0919	-999	-999	-999	-999
10562	15.812	2.673	54.15	1.088	17.222	12.076	13.194	14.802	87.1615	13.34609	14.43706	9964.9043	155.17166	140.47537	203.23026	-999	-999	-999	-999
10562.5	16.556	2.678	54.173	1.177	19.192	12.577	13.783	14.802	12	13.91718	16.15621	9965.38281	155.28189	140.56787	203.36856	-999	-999	-999	-999
10563	17.387	2.704	54.376	1.23	18.801	12.588	13.803	14.802	15.24118	13.94304	15.81448	9965.86133	155.39211	140.66035	203.50687	-999	-999	-999	-999
10563.5	17.387	2.685	54.662	1.23	16.272	12.337	13.436	14.802	14.77	14.90385	13.61065	9966.34082	155.5023	140.75281	203.64516	-999	-999	-999	-999
10564	17.387	2.661	54.967	1.342	14.824	12.108	13.149	14.802	14.77	14.60136	12.35449	9966.81934	155.61247	140.84526	203.7834	-999	-999	-999	-999
10564.5	17.037	2.659	55.568	1.765	13.486	11.947	12.873	14.802	14.77	14.31008	11.19784	9967.29883	155.72264	140.9377	203.92165	-999	-999	-999	-999
10565	16.6	2.68	56.155	2.212	12.227	11.625	12.398	14.802	14.77	13.80789	10.11344	9967.77734	155.83278	141.03012	204.05986	-999	-999	-999	-999
10565.5	17.057	2.688	56.514	2.752	11.44	11.149	11.662	14.802	14.77	13.02743	9.4377	9968.25586	155.9429	141.12253	204.19806	-999	-999	-999	-999
10566	17.387	2.655	57.002	3.1	10.511	10.663	10.929	14.802	14.77	12.24718	8.64231	9968.73535	156.05301	141.21492	204.33621	-999	-999	-999	-999
10566.5	17.966	2.64	57.278	3.197	8.856	9.933	10.003	14.852	14.77	11.2598	7.23213	9969.21387	156.1631	141.30728	204.47435	-999	-999	-999	-999
10567	18.175	2.624	58.069	3.323	6.065	9.15	9.088	14.852	14.77	10.27577	4.87812	9969.69336	156.27316	141.39964	204.61244	-999	-999	-999	-999
10567.5	18.175	2.624	58.088	3.502	3.671	8.34	8.063	14.852	14.40009	9.01096	2.89258	9970.17188	156.38321	141.49199	204.75055	-999	-999	-999	-999
10568	16.6	2.633	58.088	3.632	2.413	7.561	7.196	14.852	14.03165	8.34189	1.86836	9970.65039	156.49326	141.58432	204.88863	-999	-999	-999	-999
10568.5	15.025	2.648	58.088	3.742	2.007	7.046	6.609	14.852	14.0627	7.7301	1.54195	9971.12988	156.60327	141.67664	205.02669	-999	-999	-999	-999
10569	14.785	2.639	58.088	3.729	1.906	6.801	6.298	14.852	14.06497	7.38398	1.46115	9971.6084	156.71326	141.76894	205.16472	-999	-999	-999	-999
10569.5	14.485	2.641	58.088	3.526	1.787	6.748	6.211	14.852	14.08152	7.30669	1.36618	9972.08789	156.82324	141.86122	205.30273	-999	-999	-999	-999
10570	14.238	2.662	58.088	3.465	1.581	6.784	6.276	14.852	14.12809	7.43841	1.20238	9972.56641	156.93321	141.95349	205.44072	-999	-999	-999	-999
10570.5	14.708	2.652	58.088	3.553	1.317	6.884	6.439	14.852	14.7449	7.69167	0.99377	9973.0459	157.04315	142.04575	205.57869	-999	-999	-999	-999
10571	15.025	2.653	57.829	3.507	1.228	6.932	6.573	14.852	15.14419	7.87237	0.92381	9973.52441	157.15308	142.13799	205.71661	-999	-999	-999	-999
10571.5	15.387	2.646	57.505	3.527	1.351	6.96	6.615	14.852	14.74181	7.89278	1.02055	9974.00293	157.26299	142.23021	205.85452	-999	-999	-999	-999
10572	15.812	2.648	56.971	3.428	1.594	7.124	6.812	14.852	14.18968	8.07859	1.2127	9974.48242	157.37288	142.32242	205.99243	-999	-999	-999	-999
10572.5	15.987	2.668	56.211	3.238	1.722	7.487	7.295	14.802	14.14846	8.6184	1.31441	9974.96094	157.48274	142.41461	206.13029	-999	-999	-999	-999
10573	16.286	2.673	55.469	2.996	1.895	7.908	7.9	14.852	14.13963	9.28939	1.45238	9975.44043	157.59261	142.50679	206.26816	-999	-999	-999	-999
10573.5	16.6	2.698	54.96	2.84	2.088	8.431	8.521	14.802	14.12892	9.965	1.60689	9975.91895	157.70244	142.59895	206.40598	-999	-999	-999	-999
10574	17.61	2.709	55.1	3.063	2.247	9.136	9.455	14.802	14.13727	11.02009	1.73463	9976.39844	157.81226	142.6911	206.54378	-999	-999	-999	-999
10574.5	18.962	2.711	55.292	3.267	2.648	9.846	10.569	14.802	14.1139	12.20568	2.05836	9976.87695	157.92206	142.78323	206.68155	-999	-999	-999	-999
10575	18.962	2.708	55.503	3.214	3.063	10.256	11.241	14.802	14.08301	12.87561	2.39548	9977.35645	158.03185	142.87535	206.81932	-999	-999	-999	-999
10575.5	18.962	2.67	55.725	3.103	3.337	10.394	11.157	14.802	14.05388	12.72077	2.61908	9977.83594	158.14162	142.96745	206.95706	-999	-999	-999	-999
10576	17.387	2.655	55.725	2.854	3.747	10.054	10.529	14.802	14.10696	11.89195	2.95502	9978.31445	158.25136	143.05956	207.0948	-999	-999	-999	-999
10576.5	17.387	2.637	55.716	2.632	4.154	9.669	9.947	14.802	14.31743	11.07538	3.28995	9978.79395	158.36108	143.15163	207.23247	-999	-999	-999	-999
10577	17.387	2.658	55.345	2.231	4.292	9.702	9.892	14.802	14.36371	10.97554	3.40382	9979.27246	158.47079	143.24368	207.37013	-999	-999	-999	-999
10577.5	17.387	2.656	54.937	2.06	4.591	10.025	10.238	14.802	14.40603	11.31636	3.65102	9979.75195	158.58049	143.33572	207.50778	-999	-999	-999	-999
10578	16.897	2.649	54.712	1.875	4.959	10.499	10.861	14.802	14.43242	11.98582	3.95613	9980.23047	158.69017	143.42775	207.64542	-999	-999	-999	-999
10578.5	16.6	2.661	54.424	1.841	5.491	11.129	11.67	14.802	14.47259	12.85772	4.39878	9980.70996	158.79982	143.51976	207.783	-999	-999	-999	-999
10579	15.812	2.663	54.157	1.88	6.67	11.726	12.555	14.802	14.60269	13.86627	5.38552	9981.18848	158.90947	143.61177	207.92061	-999	-999	-999	-999
10579.5	15.812	2.656	54.15	1.835	7.476	12.23	13.291	14.751	14.66012	14.67261	6.06409	9981.66797	159.01909	143.70375	208.05815	-999	-999	-999	-999
10580	15.812	2.654	54.15	2	8.633	12.806	14.268	14.751	14.72792	15.74364	7.04306	9982.14746	159.12869	143.79572	208.19568	-999	-999	-999	-999
10580.5	16.142	2.655	54.365	2.291	9.533	13.029	14.954	14.751	15.89819	16.58665	7.8081	9982.62598	159.23828	143.88768	208.33321	-999	-999	-999	-999
10581	16.6	2.658	54.768	2.707	9.386	12.106	14.222	14.751	19.2337	16.11159	7.68296	9983.10547	159.34784	143.97961	208.47069	-999	-999	-999	-999
10581.5	17.028	2.644	55.571	3.165	8.798	10.049	11.574	14.751	17.72708	13.13245	7.18312	9983.58398	159.4574	144.07153	208.60815	-999	-999	-999	-999
10582	17.387	2.635	56.224	3.868	8.299	8.237	9.052	14.751	14.77	10.2311	6.75993	9984.06348	159.56693	144.16344	208.74561	-999	-999	-999	-999
10582.5	16.206	2.626	56.917	4.28	7.597	7.31	7.792	14.751	14.77	8.86655	6.16626	9984.54297	159.67644	144.25534	208.88303	-999	-999	-999	-999
10583	15.468	2.628	57.672	4.576	7.905	7.081	7.483	14.751	14.77	8.53002	6.42649	9985.02148	159.78593	144.34721	209.02043	-999	-999	-999	-999
10583.5	15.025	2.64	58.004	4.503	7.558	7.216	7.647	14.751	14.77	8.70872	6.13335	9985.50098	159.89542	144.43907	209.15779	-999	-999	-999	-999
10584	15.025	2.639	57.588	4.441	8.251	7.374	7.936	14.751	14.77	9.02308	6.7193	9985.98047	160.00488	144.53093	209.29517	-999	-999	-999	-999
10584.5	15.36	2.64	57.3	4.471	8.974	7.564	8.159	14.7	14.77	9.26257	7.33265	9986.45898	160.11432	144.62276	209.43248	-999	-999	-999	-999
10585	15.812	2.649	57.3	5	8.843	7.522	8.236	14.7	14.77	9.34605	7.22138	9986.93848	160.22374	144.71458	209.56979	-999	-999	-999	-999
10585.5	15.812	2.647	57.635	5.741	7.845	7.1	7.792	14.7	14.77	8.86394	6.3758	9987.41797	160.33315	144.80638	209.70709	-999	-999	-999	-999
10586	15.812	2.631	58.908	6.464	6.918	6.194	6.595	14.7	14.77	7.55605	5.59408	9987.89648	160.44254	144.89816	209.84436	-999	-999	-999	-999
10586.5	15.812	2.614	59.813	7.387	6.037	5.116	5.218	14.7	14.77	6.03465	4.8549	9988.37598	160.55191	144.98994	209.9816	-999	-999	-999	-999
10587	15.812	2.596	60.783	8.297	5.165	4.226	4.172	14.7	14.77	4.86447	4.1274	9988.85547	160.66127	145.0817	210.11882	-999	-999	-999	-999
10587.5	14.981	2.579	61.329	8.539	4.497	3.78	3.593	14.7	14.77	4.21028	3.57332	9989.33398	160.7706	145.17345	210.25601	-999	-999	-999	-999
10588	14.238	2.571	61.962	8.78	4.347	3.764	3.525	14.7	14.77	4.1331	3.44933	9989.81348	160.87991	145.26517	210.39319	-999	-999	-999	-999
10588.5	13.809	2.588	60.434	8.02	4.879	4.048	3.83	14.7	14.77	4.47866	3.88982	9990.29297	160.98921	145.35689	210.53035	-999	-999	-999	-999
10589	13.45	2.609	58.863	6.86	6.231	4.546	4.334	14.7	140	4.02495	5.01736	9990.77246	161.0985	145.44858	210.66747	-999	-999	-999	-999
