~VERSION	INFORMATION										
VERS.	2	:CWLS	LOG	ASCII	STANDARD--VERSION	2					
WRAP.	YES	:MULTIPLE	LINE	PER	DEPTH	STEP					
~WELL	INFORMATION										
#MNEM.UNIT	DATA	DESCRIPTION									
#================================================											
STRT.F	10000	:START	DEPTH								
STOP.F	11856	:STOP	DEPTH								
STEP.F	0.5	:STEP									
NULL.	-999	:NULL	VALUE								
WELL.	X-5	:	WELL	NAME							
UWI.	Well	X-5	:	WELL	UWI						
API.	Well	X-5	:	WELL	API						
LOC.	UKCS	:	WELL	LOCATION							
DATE.	1994	:	WELL	DATE							
FLD.	Xf	:	Project	Name							
~CURVE	INFORMATION										
#================================================											
DEPTH	.ft	:DEPTH									
GR	.GAPI	:GR									
DENS.g/cc	:DENS										
SONI.us/f	:SONI										
CNL	.por%	:CNL									
MSFL.ohmm	:MSFL										
LL9S.ohmm	:LL9S										
LL9D.ohmm	:LL9D										
CALI.in	:CALI										
DI	.in	:DI									
RT	.ohmm	:RT									
RX0	.ohmm	:RX0									
TVD	.ft	:TVD									
Y	DEV	.ft	:Y	DEV							
X	DEV	.ft	:X	DEV							
ALPHA	.UNKN	:ALPHA									
KH	.UNKN	:KH									
KV	.UNKN	:KV									
CPOR.UNKN	:CPOR										
GD	.UNKN	:GD									
~PARAMETERS	INFORMATION										
#================================================											
ELEV.ft	78	:	TLOG	CONSTANT	-	4	-	ELEVATION			
RMC	.ohmm	3	:	TLOG	CONSTANT	-	5	-	RMC		
TRMC.degF	75	:	TLOG	CONSTANT	-	6	-	TRMC			
RM	.ohmm	3	:	TLOG	CONSTANT	-	7	-	RM		
TRM	.degF	75	:	TLOG	CONSTANT	-	8	-	TRM		
RMF	.ohmm	3	:	TLOG	CONSTANT	-	9	-	RMF		
TRMF.degF	75	:	TLOG	CONSTANT	-	10	-	TRMF			
RW	.ohmm	3	:	TLOG	CONSTANT	-	11	-	RW		
TRW	.degF	75	:	TLOG	CONSTANT	-	12	-	TRW		
BHT	.degF	120	:	TLOG	CONSTANT	-	13	-	BHT		
MEAN.degF	75	:	TLOG	CONSTANT	-	14	-	MEAN	SURF	TEMP	
ARCH.UNKN	1	:	TLOG	CONSTANT	-	16	-	ARCHIE	A		
ARCH.UNKN	2	:	TLOG	CONSTANT	-	17	-	ARCHIE	M		
SAT	.UNKN	2	:	TLOG	CONSTANT	-	18	-	SAT	EXP	(N)
R	SH.ohmm	9	:	TLOG	CONSTANT	-	19	-	R	SHALE	
TD	.ft	5000	:	TLOG	CONSTANT	-	20	-	TD		
CALI.UNKN	18	:	TLOG	CONSTANT	-	23	-	CALIPER	CHANNEL		
BIT	.in	8	:	TLOG	CONSTANT	-	24	-	BIT	SIZE	(IN)
MUD	.lb/g	8	:	TLOG	CONSTANT	-	25	-	MUD	WEIGHT(#/GL)	
FM	S.ppm	0	:	TLOG	CONSTANT	-	26	-	FM	SALINITY(PPM)	
BH	S.ppm	0	:	TLOG	CONSTANT	-	27	-	BH	SALINITY(PPM)	
STAN.in	0	:	TLOG	CONSTANT	-	28	-	STANDOFF	(IL)		
STAN.in	0	:	TLOG	CONSTANT	-	29	-	STANDOFF	(NEUT)		
O_D_.in	7	:	TLOG	CONSTANT	-	30	-	O.D.	CASING(IN)		
WT_	.lb/f	20	:	TLOG	CONSTANT	-	31	-	WT.	CASING(#/FT)	
TYPE.UNKN	0	:	TLOG	CONSTANT	-	32	-	TYPE	OF	MUD	
AUTO.UNKN	0	:	TLOG	CONSTANT	-	33	-	AUTO	CALI	CORR	
GR	M.GAPI	20	:	TLOG	CONSTANT	-	61	-	GR	MATRIX	
RHO	.g/cc	2.71	:	TLOG	CONSTANT	-	62	-	RHO	MATRIX	
DT	M.us/f	47.5	:	TLOG	CONSTANT	-	63	-	DT	MATRIX	
CNL	.pu	0	:	TLOG	CONSTANT	-	64	-	CNL	MATRIX	
GR	S.GAPI	120	:	TLOG	CONSTANT	-	65	-	GR	SHALE	
RHO	.g/cc	2.4	:	TLOG	CONSTANT	-	66	-	RHO	SHALE	
DT	S.us/f	100	:	TLOG	CONSTANT	-	67	-	DT	SHALE	
CNL	.pu	0.3	:	TLOG	CONSTANT	-	68	-	CNL	SHALE	
GR	F.GAPI	20	:	TLOG	CONSTANT	-	69	-	GR	FLUID	
RHO	.g/cc	1	:	TLOG	CONSTANT	-	70	-	RHO	FLUID	
DT	F.us/f	189	:	TLOG	CONSTANT	-	71	-	DT	FLUID	
CNL	.pu	1	:	TLOG	CONSTANT	-	72	-	CNL	FLUID	
DT	M.us/f	82	:	TLOG	CONSTANT	-	73	-	DT	MATRIX	SHALE
~A
# ...
11695	76.257	2.445	77.767	28.379	-999	-999	-999	15.31	12	-999	-999	11020.41211	457.34949	414.57791	599.44727	-999	-999	-999	-999
11695.5	77.044	2.457	77.775	29.096	-999	-999	-999	16.225	12	-999	-999	11020.87207	457.48816	414.71634	599.63959	-999	-999	-999	-999
11696	79.838	2.473	76.196	29.233	-999	-999	-999	16.987	12	-999	-999	11021.33203	457.62677	414.85474	599.83179	-999	-999	-999	-999
11696.5	81.982	2.496	73.052	27.955	-999	-999	-999	17.14	12	-999	-999	11021.79199	457.76532	414.99313	600.02399	-999	-999	-999	-999
11697	83.774	2.474	74.12	26.536	-999	-999	-999	16.987	12	-999	-999	11022.25195	457.90378	415.13153	600.21619	-999	-999	-999	-999
11697.5	85.4	2.46	75.43	25.812	-999	-999	-999	15.869	12	-999	-999	11022.71191	458.04221	415.2699	600.40833	-999	-999	-999	-999
11698	86.647	2.453	77.565	24.458	-999	-999	-999	16.327	12	-999	-999	11023.17188	458.18054	415.40826	600.60034	-999	-999	-999	-999
11698.5	85.782	2.478	79.29	24.782	-999	-999	-999	16.632	12	-999	-999	11023.63184	458.31885	415.5466	600.79242	-999	-999	-999	-999
11699	85.416	2.493	76.169	25.916	-999	-999	-999	16.327	12	-999	-999	11024.09277	458.45706	415.68494	600.98438	-999	-999	-999	-999
11699.5	85.418	2.473	74.78	25.69	-999	-999	-999	15.869	12	-999	-999	11024.55273	458.59531	415.82318	601.17627	-999	-999	-999	-999
11700	84.1	2.471	73.79	25.717	-999	-999	-999	14.039	12	-999	-999	11025.0127	458.73358	415.9614	601.36816	-999	-999	-999	-999
11700.5	83.846	2.486	72.142	25.27	-999	-999	-999	13.988	12	-999	-999	11025.47363	458.8718	416.09958	601.56006	-999	-999	-999	-999
11701	83.841	2.498	70.088	23.463	-999	-999	-999	13.073	12	-999	-999	11025.93359	459.01004	416.23773	601.75189	-999	-999	-999	-999
11701.5	84.697	2.481	73.017	24.145	-999	-999	-999	14.497	12	-999	-999	11026.39355	459.14828	416.37585	601.94373	-999	-999	-999	-999
11702	86.584	2.478	73.156	26.297	-999	-999	-999	15.513	12	-999	-999	11026.85449	459.2865	416.51395	602.1355	-999	-999	-999	-999
11702.5	89.315	2.441	74.969	27.699	-999	-999	-999	14.09	12	-999	-999	11027.31445	459.42474	416.65201	602.32721	-999	-999	-999	-999
11703	91.39	2.429	77.106	28.7	-999	-999	-999	13.683	12	-999	-999	11027.77441	459.56296	416.79004	602.51898	-999	-999	-999	-999
11703.5	93.736	2.448	78.446	28.182	-999	-999	-999	14.039	12	-999	-999	11028.23438	459.70117	416.92807	602.71063	-999	-999	-999	-999
11704	94.687	2.489	79.35	25.925	-999	-999	-999	14.649	12	-999	-999	11028.69531	459.83936	417.06604	602.90234	-999	-999	-999	-999
11704.5	97.103	2.53	78.831	24.212	-999	-999	-999	14.751	12	-999	-999	11029.15527	459.97757	417.20398	603.09393	-999	-999	-999	-999
11705	98.312	2.552	76.2	24.076	-999	-999	-999	12.717	12	-999	-999	11029.61621	460.11575	417.34189	603.28558	-999	-999	-999	-999
11705.5	99.546	2.548	76.2	25.342	-999	-999	-999	12.616	12	-999	-999	11030.07617	460.25394	417.4798	603.47711	-999	-999	-999	-999
11706	101.472	2.535	76.2	26.487	-999	-999	-999	12.616	12	-999	-999	11030.53613	460.39212	417.61765	603.66876	-999	-999	-999	-999
11706.5	102.741	2.526	76.2	26.191	-999	-999	-999	12.667	12	-999	-999	11030.99707	460.5303	417.75546	603.86023	-999	-999	-999	-999
11707	105.916	2.526	76.076	25.553	-999	-999	-999	13.073	12	-999	-999	11031.45703	460.66849	417.89328	604.05176	-999	-999	-999	-999
11707.5	106.755	2.511	75.313	25.215	-999	-999	-999	12.717	12	-999	-999	11031.91699	460.80664	418.03104	604.24329	-999	-999	-999	-999
11708	107.495	2.502	74.417	23.478	-999	-999	-999	12.463	12	-999	-999	11032.37793	460.94479	418.16876	604.43469	-999	-999	-999	-999
11708.5	107.47	2.496	74.042	22.742	-999	-999	-999	12.26	12	-999	-999	11032.83789	461.08295	418.30649	604.6261	-999	-999	-999	-999
11709	104.88	2.47	74.89	23.469	-999	-999	-999	11.701	12	-999	-999	11033.29883	461.2211	418.44415	604.8175	-999	-999	-999	-999
11709.5	104.342	2.439	75.565	23.578	-999	-999	-999	11.599	12	-999	-999	11033.75879	461.35925	418.58182	605.00885	-999	-999	-999	-999
11710	103.431	2.387	75.966	23.91	-999	-999	-999	11.396	12	-999	-999	11034.21973	461.49738	418.71942	605.20013	-999	-999	-999	-999
11710.5	98.756	2.335	77.181	23.146	-999	-999	-999	11.345	12	-999	-999	11034.67969	461.63553	418.85703	605.39148	-999	-999	-999	-999
11711	95.725	2.313	79.772	22.503	-999	-999	-999	10.887	12	-999	-999	11035.14063	461.77365	418.9946	605.58282	-999	-999	-999	-999
11711.5	91.771	2.288	81.928	22.349	-999	-999	-999	10.837	12	-999	-999	11035.60059	461.91177	419.13211	605.77405	-999	-999	-999	-999
11712	92.136	2.269	83.288	22.338	-999	-999	-999	10.938	12	-999	-999	11036.06152	462.0499	419.26962	605.96533	-999	-999	-999	-999
11712.5	92.375	2.256	83.288	22.41	-999	-999	-999	10.837	12	-999	-999	11036.52148	462.18799	419.40707	606.15649	-999	-999	-999	-999
11713	89.751	2.246	83.288	21.636	-999	-999	-999	10.786	12	-999	-999	11036.98242	462.32611	419.54453	606.34766	-999	-999	-999	-999
11713.5	86.047	2.246	83.288	20.835	-999	-999	-999	10.633	12	-999	-999	11037.44238	462.4642	419.68195	606.53876	-999	-999	-999	-999
11714	84.606	2.256	83.075	20.282	-999	-999	-999	10.532	12	-999	-999	11037.90332	462.60229	419.81934	606.72992	-999	-999	-999	-999
11714.5	84.113	2.27	82.655	20.733	-999	-999	-999	10.532	12	-999	-999	11038.36328	462.74039	419.95667	606.92096	-999	-999	-999	-999
11715	84.17	2.28	82.457	21.348	-999	-999	-999	10.583	12	-999	-999	11038.82422	462.87845	420.09399	607.11206	-999	-999	-999	-999
11715.5	85.203	2.27	82.766	21.347	-999	-999	-999	10.786	12	-999	-999	11039.28418	463.01654	420.23129	607.3031	-999	-999	-999	-999
11716	84.954	2.262	83.549	21.52	-999	-999	-999	10.837	12	-999	-999	11039.74512	463.1546	420.36856	607.49408	-999	-999	-999	-999
11716.5	86.91	2.272	85.069	21.464	-999	-999	-999	10.837	12	-999	-999	11040.20605	463.29266	420.5058	607.68512	-999	-999	-999	-999
11717	88.834	2.286	85.65	21.463	-999	-999	-999	10.837	12	-999	-999	11040.66602	463.43073	420.64301	607.87604	-999	-999	-999	-999
11717.5	90.519	2.324	85.65	21.365	-999	-999	-999	10.938	12	-999	-999	11041.12695	463.56879	420.78018	608.06702	-999	-999	-999	-999
11718	92.358	2.381	85.013	21.329	-999	-999	-999	11.04	12	-999	-999	11041.58691	463.70682	420.91733	608.25787	-999	-999	-999	-999
11718.5	92.98	2.444	84.353	21.91	-999	-999	-999	11.192	12	-999	-999	11042.04785	463.84488	421.05444	608.44873	-999	-999	-999	-999
11719	92.016	2.49	82.522	23.823	-999	-999	-999	11.65	12	-999	-999	11042.50879	463.98291	421.19153	608.63953	-999	-999	-999	-999
11719.5	93.397	2.481	81.144	24.711	-999	-999	-999	11.802	12	-999	-999	11042.96875	464.12094	421.32858	608.83038	-999	-999	-999	-999
11720	94.255	2.477	81.527	24.653	-999	-999	-999	11.853	12	-999	-999	11043.42969	464.25897	421.46561	609.02112	-999	-999	-999	-999
11720.5	95.898	2.464	81.713	24.113	-999	-999	-999	11.853	12	-999	-999	11043.89063	464.39697	421.6026	609.21191	-999	-999	-999	-999
11721	97.353	2.494	81.827	24.093	-999	-999	-999	11.853	12	-999	-999	11044.35156	464.535	421.73956	609.40265	-999	-999	-999	-999
11721.5	99.123	2.511	80.653	24.834	-999	-999	-999	11.802	12	-999	-999	11044.81152	464.673	421.87653	609.59332	-999	-999	-999	-999
11722	100.567	2.52	79.05	24.724	-999	-999	-999	11.904	12	-999	-999	11045.27246	464.811	422.01343	609.78406	-999	-999	-999	-999
11722.5	101.395	2.53	78.36	24.693	-999	-999	-999	11.904	12	-999	-999	11045.7334	464.94901	422.1503	609.97461	-999	-999	-999	-999
11723	101.939	2.519	77.838	25.1	-999	-999	-999	11.904	12	-999	-999	11046.19336	465.08698	422.28714	610.16522	-999	-999	-999	-999
11723.5	100.802	2.527	78.327	25.655	-999	-999	-999	11.904	12	-999	-999	11046.6543	465.22498	422.42398	610.35583	-999	-999	-999	-999
11724	98.836	2.515	79.887	26.802	-999	-999	-999	11.904	12	-999	-999	11047.11523	465.36295	422.56076	610.54645	-999	-999	-999	-999
11724.5	98.455	2.496	80.341	26.999	-999	-999	-999	11.904	12	-999	-999	11047.57617	465.50092	422.69751	610.737	-999	-999	-999	-999
11725	98.801	2.477	80.814	26.703	-999	-999	-999	11.904	12	-999	-999	11048.03711	465.63889	422.83426	610.92743	-999	-999	-999	-999
11725.5	102.192	2.44	81.454	27.22	-999	-999	-999	12.006	12	-999	-999	11048.49707	465.77686	422.97095	611.11792	-999	-999	-999	-999
