~VERSION	INFORMATION										
VERS.	2	:CWLS	LOG	ASCII	STANDARD--VERSION	2					
WRAP.	YES	:MULTIPLE	LINE	PER	DEPTH	STEP					
~WELL	INFORMATION										
#MNEM.UNIT	DATA	DESCRIPTION									
#================================================											
STRT.F	10000	:START	DEPTH								
STOP.F	11856	:STOP	DEPTH								
STEP.F	0.5	:STEP									
NULL.	-999	:NULL	VALUE								
WELL.	X-5	:	WELL	NAME							
UWI.	Well	X-5	:	WELL	UWI						
API.	Well	X-5	:	WELL	API						
LOC.	UKCS	:	WELL	LOCATION							
DATE.	1994	:	WELL	DATE							
FLD.	Xf	:	Project	Name							
~CURVE	INFORMATION										
#================================================											
DEPTH	.ft	:DEPTH									
GR	.GAPI	:GR									
DENS.g/cc	:DENS										
SONI.us/f	:SONI										
CNL	.por%	:CNL									
MSFL.ohmm	:MSFL										
LL9S.ohmm	:LL9S										
LL9D.ohmm	:LL9D										
CALI.in	:CALI										
DI	.in	:DI									
RT	.ohmm	:RT									
RX0	.ohmm	:RX0									
TVD	.ft	:TVD									
Y	DEV	.ft	:Y	DEV							
X	DEV	.ft	:X	DEV							
ALPHA	.UNKN	:ALPHA									
KH	.UNKN	:KH									
KV	.UNKN	:KV									
CPOR.UNKN	:CPOR										
GD	.UNKN	:GD									
~PARAMETERS	INFORMATION										
#================================================											
ELEV.ft	78	:	TLOG	CONSTANT	-	4	-	ELEVATION			
RMC	.ohmm	3	:	TLOG	CONSTANT	-	5	-	RMC		
TRMC.degF	75	:	TLOG	CONSTANT	-	6	-	TRMC			
RM	.ohmm	3	:	TLOG	CONSTANT	-	7	-	RM		
TRM	.degF	75	:	TLOG	CONSTANT	-	8	-	TRM		
RMF	.ohmm	3	:	TLOG	CONSTANT	-	9	-	RMF		
TRMF.degF	75	:	TLOG	CONSTANT	-	10	-	TRMF			
RW	.ohmm	3	:	TLOG	CONSTANT	-	11	-	RW		
TRW	.degF	75	:	TLOG	CONSTANT	-	12	-	TRW		
BHT	.degF	120	:	TLOG	CONSTANT	-	13	-	BHT		
MEAN.degF	75	:	TLOG	CONSTANT	-	14	-	MEAN	SURF	TEMP	
ARCH.UNKN	1	:	TLOG	CONSTANT	-	16	-	ARCHIE	A		
ARCH.UNKN	2	:	TLOG	CONSTANT	-	17	-	ARCHIE	M		
SAT	.UNKN	2	:	TLOG	CONSTANT	-	18	-	SAT	EXP	(N)
R	SH.ohmm	9	:	TLOG	CONSTANT	-	19	-	R	SHALE	
TD	.ft	5000	:	TLOG	CONSTANT	-	20	-	TD		
CALI.UNKN	18	:	TLOG	CONSTANT	-	23	-	CALIPER	CHANNEL		
BIT	.in	8	:	TLOG	CONSTANT	-	24	-	BIT	SIZE	(IN)
MUD	.lb/g	8	:	TLOG	CONSTANT	-	25	-	MUD	WEIGHT(#/GL)	
FM	S.ppm	0	:	TLOG	CONSTANT	-	26	-	FM	SALINITY(PPM)	
BH	S.ppm	0	:	TLOG	CONSTANT	-	27	-	BH	SALINITY(PPM)	
STAN.in	0	:	TLOG	CONSTANT	-	28	-	STANDOFF	(IL)		
STAN.in	0	:	TLOG	CONSTANT	-	29	-	STANDOFF	(NEUT)		
O_D_.in	7	:	TLOG	CONSTANT	-	30	-	O.D.	CASING(IN)		
WT_	.lb/f	20	:	TLOG	CONSTANT	-	31	-	WT.	CASING(#/FT)	
TYPE.UNKN	0	:	TLOG	CONSTANT	-	32	-	TYPE	OF	MUD	
AUTO.UNKN	0	:	TLOG	CONSTANT	-	33	-	AUTO	CALI	CORR	
GR	M.GAPI	20	:	TLOG	CONSTANT	-	61	-	GR	MATRIX	
RHO	.g/cc	2.71	:	TLOG	CONSTANT	-	62	-	RHO	MATRIX	
DT	M.us/f	47.5	:	TLOG	CONSTANT	-	63	-	DT	MATRIX	
CNL	.pu	0	:	TLOG	CONSTANT	-	64	-	CNL	MATRIX	
GR	S.GAPI	120	:	TLOG	CONSTANT	-	65	-	GR	SHALE	
RHO	.g/cc	2.4	:	TLOG	CONSTANT	-	66	-	RHO	SHALE	
DT	S.us/f	100	:	TLOG	CONSTANT	-	67	-	DT	SHALE	
CNL	.pu	0.3	:	TLOG	CONSTANT	-	68	-	CNL	SHALE	
GR	F.GAPI	20	:	TLOG	CONSTANT	-	69	-	GR	FLUID	
RHO	.g/cc	1	:	TLOG	CONSTANT	-	70	-	RHO	FLUID	
DT	F.us/f	189	:	TLOG	CONSTANT	-	71	-	DT	FLUID	
CNL	.pu	1	:	TLOG	CONSTANT	-	72	-	CNL	FLUID	
DT	M.us/f	82	:	TLOG	CONSTANT	-	73	-	DT	MATRIX	SHALE
~A
# ...
10473.5	17.387	2.576	58.834	5.895	-999	-999	-999	15.92	-999	-999	-999	9880.22852	135.45534	123.93142	178.48947	-999	-999	-999	-999
10474	17.387	2.552	61.726	6.874	-999	-999	-999	15.717	-999	-999	-999	9880.70703	135.56714	124.02523	178.62976	-999	-999	-999	-999
10474.5	16.6	2.53	64.999	8.7	-999	-999	-999	15.412	-999	-999	-999	9881.18555	135.67894	124.11903	178.77003	-999	-999	-999	-999
10475	16.6	2.502	67.659	10.827	-999	-999	-999	15.462	-999	-999	-999	9881.66406	135.79071	124.21282	178.91029	-999	-999	-999	-999
10475.5	15.025	2.46	69.296	12.351	-999	-999	-999	15.513	-999	-999	-999	9882.1416	135.90247	124.30659	179.05054	-999	-999	-999	-999
10476	15.249	2.449	70.443	13.149	-999	-999	-999	15.513	-999	-999	-999	9882.62012	136.01421	124.40036	179.19075	-999	-999	-999	-999
10476.5	15.522	2.439	72.044	13.845	-999	-999	-999	15.462	-999	-999	-999	9883.09863	136.12593	124.49412	179.33095	-999	-999	-999	-999
10477	15.812	2.421	73.004	14.262	-999	-999	-999	15.462	-999	-999	-999	9883.57617	136.23766	124.58786	179.47116	-999	-999	-999	-999
10477.5	15.812	2.433	72.782	14.416	-999	-999	-999	15.462	-999	-999	-999	9884.05469	136.34935	124.68159	179.6113	-999	-999	-999	-999
10478	15.812	2.445	72.474	13.999	-999	-999	-999	15.462	-999	-999	-999	9884.5332	136.46104	124.7753	179.75145	-999	-999	-999	-999
10478.5	15.025	2.456	72.153	13.902	-999	-999	-999	15.462	-999	-999	-999	9885.01172	136.57272	124.86901	179.8916	-999	-999	-999	-999
10479	16.39	2.449	71.725	14.301	-999	-999	-999	15.462	-999	-999	-999	9885.48926	136.68437	124.9627	180.03171	-999	-999	-999	-999
10479.5	17.433	2.448	71.475	14.58	-999	-999	-999	15.462	-999	-999	-999	9885.96777	136.79602	125.05638	180.1718	-999	-999	-999	-999
10480	18.175	2.442	71.475	14.56	-999	-999	-999	15.412	-999	-999	-999	9886.44629	136.90765	125.15005	180.31189	-999	-999	-999	-999
10480.5	18.175	2.447	71.475	14.5	-999	-999	-999	15.412	-999	-999	-999	9886.9248	137.01927	125.24371	180.45195	-999	-999	-999	-999
10481	18.175	2.426	71.837	14.56	-999	-999	-999	15.412	-999	-999	-999	9887.40332	137.13087	125.33736	180.59198	-999	-999	-999	-999
10481.5	18.528	2.426	72.207	14.62	-999	-999	-999	15.412	-999	-999	-999	9887.88086	137.24246	125.43099	180.73201	-999	-999	-999	-999
10482	18.962	2.441	71.998	14.76	-999	-999	-999	15.412	-999	-999	-999	9888.35938	137.35405	125.52462	180.87204	-999	-999	-999	-999
10482.5	18.175	2.449	71.757	14.9	-999	-999	-999	15.462	-999	-999	-999	9888.83789	137.46561	125.61823	181.01202	-999	-999	-999	-999
10483	17.344	2.452	71.597	14.622	-999	-999	-999	15.513	-999	-999	-999	9889.31641	137.57715	125.71183	181.15199	-999	-999	-999	-999
10483.5	16.6	2.437	70.645	14.107	-999	-999	-999	15.564	-999	-999	-999	9889.79492	137.68869	125.80541	181.29196	-999	-999	-999	-999
10484	17.135	2.449	68.903	13.434	-999	-999	-999	15.615	-999	-999	-999	9890.27246	137.8002	125.89899	181.43188	-999	-999	-999	-999
10484.5	17.387	2.475	67.476	12.441	-999	-999	-999	15.615	-999	-999	-999	9890.75098	137.91171	125.99255	181.57182	-999	-999	-999	-999
10485	17.387	2.493	64.808	11.656	-999	-999	-999	15.615	-999	-999	-999	9891.22949	138.02319	126.08611	181.71172	-999	-999	-999	-999
10485.5	17.387	2.524	62.39	10.1	-999	-999	-999	15.615	-999	-999	-999	9891.70801	138.13467	126.17965	181.85159	-999	-999	-999	-999
10486	17.387	2.567	62.465	8.318	-999	-999	-999	15.666	-999	-999	-999	9892.18652	138.24614	126.27318	181.99147	-999	-999	-999	-999
10486.5	18.175	2.589	63.959	7.662	-999	-999	-999	15.666	-999	-999	-999	9892.66504	138.35759	126.36669	182.13132	-999	-999	-999	-999
10487	18.43	2.573	66.225	8.263	-999	-999	-999	15.666	-999	-999	-999	9893.14258	138.46902	126.4602	182.27115	-999	-999	-999	-999
10487.5	18.962	2.527	69.168	10.075	-999	-999	-999	15.513	-999	-999	-999	9893.62109	138.58044	126.55369	182.41096	-999	-999	-999	-999
10488	18.099	2.487	70.885	11.672	-999	-999	-999	15.259	-999	-999	-999	9894.09961	138.69185	126.64717	182.55077	-999	-999	-999	-999
10488.5	16.994	2.453	71.692	13.026	-999	-999	-999	15.259	-999	-999	-999	9894.57813	138.80324	126.74064	182.69054	-999	-999	-999	-999
10489	15.025	2.42	72.561	14.08	-999	-999	-999	15.31	-999	-999	-999	9895.05664	138.91463	126.8341	182.83032	-999	-999	-999	-999
10489.5	15.462	2.421	73.291	14.927	-999	-999	-999	15.259	-999	-999	-999	9895.53516	139.02599	126.92754	182.97005	-999	-999	-999	-999
10490	15.812	2.416	74.164	15.713	1.068	0.863	0.787	15.259	14.77	0.94599	0.79844	9896.01367	139.13734	127.02098	183.10977	-999	-999	-999	-999
10490.5	15.528	2.428	74.625	15.883	1.058	0.847	0.774	15.259	14.77	0.93021	0.79064	9896.49219	139.24867	127.1144	183.2495	-999	-999	-999	-999
10491	15.228	2.441	74.625	15.2	1.058	0.84	0.775	15.259	14.77	0.93143	0.79064	9896.9707	139.36	127.20782	183.38919	-999	-999	-999	-999
10491.5	15.025	2.446	74.52	14.48	1.129	0.867	0.8	15.259	14.77	0.96176	0.84609	9897.44824	139.4713	127.30122	183.52884	-999	-999	-999	-999
10492	14.495	2.455	74.162	14.86	1.275	0.892	0.815	15.259	140	0.71941	0.96055	9897.92676	139.5826	127.3946	183.6685	-999	-999	-999	-999
10492.5	14.238	2.46	73.399	14.84	1.386	0.927	0.863	15.259	140	0.78945	1.04795	9898.40527	139.69388	127.48798	183.80815	-999	-999	-999	-999
10493	15.051	2.464	72.136	14.38	1.448	0.974	0.904	15.259	140	0.82408	1.09689	9898.88379	139.80515	127.58134	183.94775	-999	-999	-999	-999
10493.5	15.812	2.464	71.327	14.159	1.465	1.013	0.937	15.259	140	0.85016	1.11033	9899.3623	139.9164	127.67469	184.08737	-999	-999	-999	-999
10494	16.105	2.465	70.97	13.7	1.472	1.042	0.965	15.259	140	0.8782	1.11586	9899.84082	140.02763	127.76803	184.22696	-999	-999	-999	-999
10494.5	16.6	2.473	70.327	13.539	1.497	1.074	0.985	15.259	140	0.88171	1.13563	9900.31934	140.13885	127.86136	184.36653	-999	-999	-999	-999
10495	15.991	2.473	69.079	13.239	1.55	1.098	0.998	15.259	140	0.87926	1.1776	9900.79785	140.25008	127.95467	184.50609	-999	-999	-999	-999
10495.5	15.025	2.491	68.404	13.037	1.606	1.104	1.015	15.259	140	0.91325	1.222	9901.27637	140.36127	128.04797	184.64561	-999	-999	-999	-999
10496	15.025	2.502	68.819	12.519	1.594	1.105	1.025	15.259	140	0.93687	1.21248	9901.75488	140.47244	128.14127	184.78511	-999	-999	-999	-999
10496.5	15.025	2.504	69.112	12.319	1.503	1.112	1.018	15.259	14.77	1.22504	1.14039	9902.2334	140.58362	128.23456	184.92462	-999	-999	-999	-999
10497	15.212	2.502	69.112	12.179	1.43	1.135	1.016	15.259	14.77	1.22264	1.08268	9902.71191	140.69476	128.32782	185.0641	-999	-999	-999	-999
10497.5	15.546	2.503	68.848	12.014	1.465	1.189	1.063	15.259	14.77	1.27913	1.11034	9903.19043	140.80591	128.42108	185.20357	-999	-999	-999	-999
10498	15.812	2.502	67.717	11.437	1.679	1.272	1.152	15.259	14.77	1.38587	1.27999	9903.66895	140.91704	128.51433	185.343	-999	-999	-999	-999
10498.5	15.025	2.504	66.605	11.096	2.121	1.377	1.249	15.259	140	1.10021	1.63309	9904.14746	141.02815	128.60756	185.48244	-999	-999	-999	-999
10499	15.025	2.52	65.518	10.734	2.248	1.508	1.372	15.31	140	1.21366	1.73514	9904.62598	141.13924	128.70078	185.62184	-999	-999	-999	-999
10499.5	15.025	2.544	63.945	10.273	2.137	1.713	1.551	15.31	14.77	1.86141	1.64594	9905.10352	141.25172	128.79517	185.76299	-999	-999	-999	-999
10500	15.812	2.551	62.366	9.729	2.543	1.987	1.795	15.31	14.77	2.14936	1.97305	9905.58203	141.3642	128.88954	185.90413	-999	-999	-999	-999
10500.5	15.025	2.553	60.877	9.043	3.735	2.271	2.099	15.31	86.06177	1.89392	2.94467	9906.05957	141.47664	128.98389	186.04521	-999	-999	-999	-999
10501	15.437	2.559	61.153	8.304	3.876	2.263	2.088	15.361	80.98651	1.87589	3.06051	9906.53809	141.58908	129.07823	186.18631	-999	-999	-999	-999
10501.5	15.812	2.563	63.408	8.577	3.057	2.014	1.804	15.361	140	1.54183	2.39019	9907.01563	141.70149	129.17256	186.32736	-999	-999	-999	-999
10502	15.812	2.536	64.387	9.166	2.334	1.843	1.612	15.259	14.77	1.93294	1.80438	9907.49414	141.81389	129.26688	186.46841	-999	-999	-999	-999
10502.5	15.812	2.525	64.387	9.206	2.096	1.779	1.561	15.31	14.77	1.87325	1.61305	9907.97168	141.92627	129.36118	186.60945	-999	-999	-999	-999
10503	15.812	2.532	63.998	8.664	2.279	1.849	1.614	15.31	14.77	1.93593	1.7601	9908.4502	142.03864	129.45546	186.75043	-999	-999	-999	-999
