~VERSION	INFORMATION										
VERS.	2	:CWLS	LOG	ASCII	STANDARD--VERSION	2					
WRAP.	YES	:MULTIPLE	LINE	PER	DEPTH	STEP					
~WELL	INFORMATION										
#MNEM.UNIT	DATA	DESCRIPTION									
#================================================											
STRT.F	10000	:START	DEPTH								
STOP.F	11856	:STOP	DEPTH								
STEP.F	0.5	:STEP									
NULL.	-999	:NULL	VALUE								
WELL.	X-5	:	WELL	NAME							
UWI.	Well	X-5	:	WELL	UWI						
API.	Well	X-5	:	WELL	API						
LOC.	UKCS	:	WELL	LOCATION							
DATE.	1994	:	WELL	DATE							
FLD.	Xf	:	Project	Name							
~CURVE	INFORMATION										
#================================================											
DEPTH	.ft	:DEPTH									
GR	.GAPI	:GR									
DENS.g/cc	:DENS										
SONI.us/f	:SONI										
CNL	.por%	:CNL									
MSFL.ohmm	:MSFL										
LL9S.ohmm	:LL9S										
LL9D.ohmm	:LL9D										
CALI.in	:CALI										
DI	.in	:DI									
RT	.ohmm	:RT									
RX0	.ohmm	:RX0									
TVD	.ft	:TVD									
Y	DEV	.ft	:Y	DEV							
X	DEV	.ft	:X	DEV							
ALPHA	.UNKN	:ALPHA									
KH	.UNKN	:KH									
KV	.UNKN	:KV									
CPOR.UNKN	:CPOR										
GD	.UNKN	:GD									
~PARAMETERS	INFORMATION										
#================================================											
ELEV.ft	78	:	TLOG	CONSTANT	-	4	-	ELEVATION			
RMC	.ohmm	3	:	TLOG	CONSTANT	-	5	-	RMC		
TRMC.degF	75	:	TLOG	CONSTANT	-	6	-	TRMC			
RM	.ohmm	3	:	TLOG	CONSTANT	-	7	-	RM		
TRM	.degF	75	:	TLOG	CONSTANT	-	8	-	TRM		
RMF	.ohmm	3	:	TLOG	CONSTANT	-	9	-	RMF		
TRMF.degF	75	:	TLOG	CONSTANT	-	10	-	TRMF			
RW	.ohmm	3	:	TLOG	CONSTANT	-	11	-	RW		
TRW	.degF	75	:	TLOG	CONSTANT	-	12	-	TRW		
BHT	.degF	120	:	TLOG	CONSTANT	-	13	-	BHT		
MEAN.degF	75	:	TLOG	CONSTANT	-	14	-	MEAN	SURF	TEMP	
ARCH.UNKN	1	:	TLOG	CONSTANT	-	16	-	ARCHIE	A		
ARCH.UNKN	2	:	TLOG	CONSTANT	-	17	-	ARCHIE	M		
SAT	.UNKN	2	:	TLOG	CONSTANT	-	18	-	SAT	EXP	(N)
R	SH.ohmm	9	:	TLOG	CONSTANT	-	19	-	R	SHALE	
TD	.ft	5000	:	TLOG	CONSTANT	-	20	-	TD		
CALI.UNKN	18	:	TLOG	CONSTANT	-	23	-	CALIPER	CHANNEL		
BIT	.in	8	:	TLOG	CONSTANT	-	24	-	BIT	SIZE	(IN)
MUD	.lb/g	8	:	TLOG	CONSTANT	-	25	-	MUD	WEIGHT(#/GL)	
FM	S.ppm	0	:	TLOG	CONSTANT	-	26	-	FM	SALINITY(PPM)	
BH	S.ppm	0	:	TLOG	CONSTANT	-	27	-	BH	SALINITY(PPM)	
STAN.in	0	:	TLOG	CONSTANT	-	28	-	STANDOFF	(IL)		
STAN.in	0	:	TLOG	CONSTANT	-	29	-	STANDOFF	(NEUT)		
O_D_.in	7	:	TLOG	CONSTANT	-	30	-	O.D.	CASING(IN)		
WT_	.lb/f	20	:	TLOG	CONSTANT	-	31	-	WT.	CASING(#/FT)	
TYPE.UNKN	0	:	TLOG	CONSTANT	-	32	-	TYPE	OF	MUD	
AUTO.UNKN	0	:	TLOG	CONSTANT	-	33	-	AUTO	CALI	CORR	
GR	M.GAPI	20	:	TLOG	CONSTANT	-	61	-	GR	MATRIX	
RHO	.g/cc	2.71	:	TLOG	CONSTANT	-	62	-	RHO	MATRIX	
DT	M.us/f	47.5	:	TLOG	CONSTANT	-	63	-	DT	MATRIX	
CNL	.pu	0	:	TLOG	CONSTANT	-	64	-	CNL	MATRIX	
GR	S.GAPI	120	:	TLOG	CONSTANT	-	65	-	GR	SHALE	
RHO	.g/cc	2.4	:	TLOG	CONSTANT	-	66	-	RHO	SHALE	
DT	S.us/f	100	:	TLOG	CONSTANT	-	67	-	DT	SHALE	
CNL	.pu	0.3	:	TLOG	CONSTANT	-	68	-	CNL	SHALE	
GR	F.GAPI	20	:	TLOG	CONSTANT	-	69	-	GR	FLUID	
RHO	.g/cc	1	:	TLOG	CONSTANT	-	70	-	RHO	FLUID	
DT	F.us/f	189	:	TLOG	CONSTANT	-	71	-	DT	FLUID	
CNL	.pu	1	:	TLOG	CONSTANT	-	72	-	CNL	FLUID	
DT	M.us/f	82	:	TLOG	CONSTANT	-	73	-	DT	MATRIX	SHALE
~A
# ...
11788.5	119.538	2.385	79.35	22.34	-999	-999	-999	11.447	12	-999	-999	11106.63379	483.11288	439.95859	634.89551	-999	-999	-999	-999
11789	119.54	2.374	80.256	23.22	-999	-999	-999	11.447	12	-999	-999	11107.0957	483.25009	440.09152	635.08246	-999	-999	-999	-999
11789.5	119.541	2.373	80.925	24.64	-999	-999	-999	11.447	12	-999	-999	11107.55762	483.38727	440.22446	635.26935	-999	-999	-999	-999
11790	119.542	2.353	81.622	26.42	-999	-999	-999	11.447	12	-999	-999	11108.02051	483.52448	440.35733	635.45624	-999	-999	-999	-999
11790.5	120.185	2.335	82.5	27.08	-999	-999	-999	11.497	12	-999	-999	11108.48242	483.66165	440.4902	635.64307	-999	-999	-999	-999
11791	122.595	2.366	82.232	27.36	-999	-999	-999	11.599	12	-999	-999	11108.94434	483.79883	440.62302	635.8299	-999	-999	-999	-999
11791.5	121.561	2.431	81.713	26.76	-999	-999	-999	11.752	12	-999	-999	11109.40625	483.936	440.75583	636.01672	-999	-999	-999	-999
11792	120.441	2.443	81.713	26	-999	-999	-999	12.819	12	-999	-999	11109.86816	484.07318	440.88858	636.20349	-999	-999	-999	-999
11792.5	121.399	2.414	81.713	26.3	-999	-999	-999	12.768	12	-999	-999	11110.33105	484.21033	441.02133	636.3902	-999	-999	-999	-999
11793	123.245	2.383	81.713	27.02	-999	-999	-999	12.108	12	-999	-999	11110.79297	484.34747	441.15405	636.57697	-999	-999	-999	-999
11793.5	126.018	2.345	82.5	27.76	-999	-999	-999	12.057	12	-999	-999	11111.25488	484.48462	441.28671	636.76367	-999	-999	-999	-999
11794	126.551	2.357	81.089	28.64	-999	-999	-999	13.022	12	-999	-999	11111.7168	484.62177	441.41937	636.95032	-999	-999	-999	-999
11794.5	125.513	2.401	80.137	28.41	-999	-999	-999	13.175	12	-999	-999	11112.17969	484.75891	441.552	637.13696	-999	-999	-999	-999
11795	124.681	2.416	80.137	26.004	-999	-999	-999	13.277	12	-999	-999	11112.6416	484.89603	441.6846	637.32355	-999	-999	-999	-999
11795.5	128.383	2.397	80.137	23.616	-999	-999	-999	13.632	12	-999	-999	11113.10352	485.03314	441.81714	637.51007	-999	-999	-999	-999
11796	133.162	2.385	89.062	23.35	-999	-999	-999	12.362	12	-999	-999	11113.56641	485.17026	441.94968	637.69666	-999	-999	-999	-999
11796.5	134.94901	2.362	111.637	23.97	-999	-999	-999	11.548	12	-999	-999	11114.02832	485.30737	442.08218	637.88318	-999	-999	-999	-999
11797	137.28101	2.347	84.862	23.533	-999	-999	-999	11.497	12	-999	-999	11114.49023	485.44449	442.21466	638.0697	-999	-999	-999	-999
11797.5	139.297	2.349	84.862	22.49	-999	-999	-999	11.548	12	-999	-999	11114.95215	485.58157	442.34711	638.25616	-999	-999	-999	-999
11798	139.75101	2.381	84.264	21.902	-999	-999	-999	11.548	12	-999	-999	11115.41504	485.71866	442.47952	638.44257	-999	-999	-999	-999
11798.5	139.13901	2.4	83.288	22.21	-999	-999	-999	12.362	12	-999	-999	11115.87695	485.85574	442.61191	638.62897	-999	-999	-999	-999
11799	132.01801	2.417	82.5	22.917	-999	-999	-999	12.819	12	-999	-999	11116.33984	485.99283	442.74426	638.81537	-999	-999	-999	-999
11799.5	124.872	2.421	84.294	23.154	-999	-999	-999	12.158	12	-999	-999	11116.80176	486.12988	442.87662	639.00177	-999	-999	-999	-999
11800	122.585	2.441	85.65	23.194	-999	-999	-999	11.65	12	-999	-999	11117.26465	486.26694	443.00897	639.18811	-999	-999	-999	-999
11800.5	118.823	2.457	85.65	23.697	-999	-999	-999	11.853	12	-999	-999	11117.72656	486.40402	443.14133	639.37451	-999	-999	-999	-999
11801	116.888	2.464	84.496	23.637	-999	-999	-999	11.396	12	-999	-999	11118.18848	486.54108	443.27368	639.56085	-999	-999	-999	-999
11801.5	116.252	2.446	81.713	22.696	-999	-999	-999	11.345	12	-999	-999	11118.65137	486.67813	443.40604	639.74719	-999	-999	-999	-999
11802	113.915	2.403	80.704	20.583	-999	-999	-999	11.243	12	-999	-999	11119.11328	486.81519	443.53839	639.93359	-999	-999	-999	-999
11802.5	110.277	2.373	79.038	18.967	-999	-999	-999	10.938	12	-999	-999	11119.57617	486.95224	443.67075	640.11993	-999	-999	-999	-999
11803	111.216	2.374	77.775	19.462	-999	-999	-999	10.938	12	-999	-999	11120.03809	487.08929	443.80313	640.30634	-999	-999	-999	-999
11803.5	111.434	2.418	76.987	21.422	-999	-999	-999	10.786	12	-999	-999	11120.5	487.22638	443.93549	640.49268	-999	-999	-999	-999
11804	110.064	2.467	79.35	23.205	-999	-999	-999	10.887	12	-999	-999	11120.96289	487.36343	444.06784	640.67914	-999	-999	-999	-999
11804.5	109.649	2.489	83.288	24.489	-999	-999	-999	11.701	12	-999	-999	11121.4248	487.50049	444.2002	640.86548	-999	-999	-999	-999
11805	109.173	2.479	84.075	25.247	-999	-999	-999	11.243	12	-999	-999	11121.88672	487.63754	444.33255	641.05188	-999	-999	-999	-999
11805.5	107.443	2.49	81.993	25.113	-999	-999	-999	11.447	12	-999	-999	11122.34961	487.7746	444.4649	641.23822	-999	-999	-999	-999
11806	105.08	2.443	80.137	25.611	-999	-999	-999	11.548	12	-999	-999	11122.81152	487.91165	444.59726	641.42456	-999	-999	-999	-999
11806.5	102.777	2.389	80.925	26.88	-999	-999	-999	11.752	12	-999	-999	11123.27441	488.04874	444.72961	641.61096	-999	-999	-999	-999
11807	101.43	2.317	80.619	27.898	-999	-999	-999	11.548	12	-999	-999	11123.73633	488.18579	444.86197	641.7973	-999	-999	-999	-999
11807.5	101.069	2.256	80.319	27.439	-999	-999	-999	11.447	12	-999	-999	11124.19824	488.32285	444.99432	641.9837	-999	-999	-999	-999
11808	100.383	2.276	80.137	26.268	-999	-999	-999	11.091	12	-999	-999	11124.66113	488.4599	445.12668	642.17004	-999	-999	-999	-999
11808.5	97.838	2.316	81.713	25.36	-999	-999	-999	11.396	12	-999	-999	11125.12305	488.59695	445.25903	642.35645	-999	-999	-999	-999
11809	94.966	2.32	84.862	24.341	-999	-999	-999	11.396	12	-999	-999	11125.58496	488.73401	445.39139	642.54279	-999	-999	-999	-999
11809.5	93.447	2.302	85.65	23.188	-999	-999	-999	11.701	12	-999	-999	11126.04785	488.87109	445.52374	642.72919	-999	-999	-999	-999
11810	92.23	2.289	86.437	22.256	-999	-999	-999	12.006	12	-999	-999	11126.50977	489.00815	445.65613	642.91559	-999	-999	-999	-999
11810.5	91.018	2.302	87.401	22	-999	-999	-999	11.65	12	-999	-999	11126.97168	489.1452	445.78848	643.10193	-999	-999	-999	-999
11811	89.503	2.311	88.8	21.95	-999	-999	-999	10.481	12	-999	-999	11127.43457	489.28226	445.92084	643.28821	-999	-999	-999	-999
11811.5	89.171	2.321	-999	21.651	-999	-999	-999	10.43	12	-999	-999	11127.89648	489.41931	446.05319	643.47467	-999	-999	-999	-999
11812	90.911	2.326	-999	21.528	-999	-999	-999	10.328	12	-999	-999	11128.35938	489.55637	446.18555	643.66107	-999	-999	-999	-999
11812.5	92.087	2.309	-999	22.123	-999	-999	-999	10.227	12	-999	-999	11128.82129	489.69345	446.3179	643.84741	-999	-999	-999	-999
11813	91.963	2.293	-999	22.098	-999	-999	-999	10.125	12	-999	-999	11129.2832	489.83051	446.45026	644.03375	-999	-999	-999	-999
11813.5	90.37	2.29	-999	21.941	-999	-999	-999	10.125	12	-999	-999	11129.74609	489.96756	446.58261	644.22015	-999	-999	-999	-999
11814	87.341	2.302	-999	21.699	-999	-999	-999	10.379	12	-999	-999	11130.20801	490.10461	446.71497	644.40649	-999	-999	-999	-999
11814.5	87.34	2.314	-999	21.222	-999	-999	-999	10.532	12	-999	-999	11130.66992	490.24167	446.84732	644.5929	-999	-999	-999	-999
11815	87.814	2.31	-999	20.75	-999	-999	-999	10.583	12	-999	-999	11131.13281	490.37872	446.97968	644.77924	-999	-999	-999	-999
11815.5	90.945	2.302	-999	20.828	-999	-999	-999	10.481	12	-999	-999	11131.59473	490.51581	447.11203	644.96564	-999	-999	-999	-999
11816	92.812	2.283	-999	21.468	-999	-999	-999	10.43	12	-999	-999	11132.05664	490.65286	447.24438	645.15198	-999	-999	-999	-999
11816.5	92.596	2.276	-999	21.961	-999	-999	-999	10.379	12	-999	-999	11132.51953	490.78992	447.37674	645.33832	-999	-999	-999	-999
11817	91.512	2.279	-999	22.97	-999	-999	-999	10.43	12	-999	-999	11132.98145	490.92697	447.50912	645.52478	-999	-999	-999	-999
11817.5	88.479	2.266	-999	23.8	-999	-999	-999	10.532	12	-999	-999	11133.44434	491.06403	447.64148	645.71112	-999	-999	-999	-999
11818	85.506	2.252	-999	23.58	-999	-999	-999	10.633	12	-999	-999	11133.90625	491.20108	447.77383	645.89752	-999	-999	-999	-999
11818.5	84.166	2.249	-999	23.08	-999	-999	-999	10.583	12	-999	-999	11134.36816	491.33817	447.90619	646.08386	-999	-999	-999	-999
11819	83.759	2.258	-999	22.02	-999	-999	-999	10.583	12	-999	-999	11134.83105	491.47522	448.03854	646.27026	-999	-999	-999	-999
