~VERSION	INFORMATION										
VERS.	2	:CWLS	LOG	ASCII	STANDARD--VERSION	2					
WRAP.	YES	:MULTIPLE	LINE	PER	DEPTH	STEP					
~WELL	INFORMATION										
#MNEM.UNIT	DATA	DESCRIPTION									
#================================================											
STRT.F	10000	:START	DEPTH								
STOP.F	11856	:STOP	DEPTH								
STEP.F	0.5	:STEP									
NULL.	-999	:NULL	VALUE								
WELL.	X-5	:	WELL	NAME							
UWI.	Well	X-5	:	WELL	UWI						
API.	Well	X-5	:	WELL	API						
LOC.	UKCS	:	WELL	LOCATION							
DATE.	1994	:	WELL	DATE							
FLD.	Xf	:	Project	Name							
~CURVE	INFORMATION										
#================================================											
DEPTH	.ft	:DEPTH									
GR	.GAPI	:GR									
DENS.g/cc	:DENS										
SONI.us/f	:SONI										
CNL	.por%	:CNL									
MSFL.ohmm	:MSFL										
LL9S.ohmm	:LL9S										
LL9D.ohmm	:LL9D										
CALI.in	:CALI										
DI	.in	:DI									
RT	.ohmm	:RT									
RX0	.ohmm	:RX0									
TVD	.ft	:TVD									
Y	DEV	.ft	:Y	DEV							
X	DEV	.ft	:X	DEV							
ALPHA	.UNKN	:ALPHA									
KH	.UNKN	:KH									
KV	.UNKN	:KV									
CPOR.UNKN	:CPOR										
GD	.UNKN	:GD									
~PARAMETERS	INFORMATION										
#================================================											
ELEV.ft	78	:	TLOG	CONSTANT	-	4	-	ELEVATION			
RMC	.ohmm	3	:	TLOG	CONSTANT	-	5	-	RMC		
TRMC.degF	75	:	TLOG	CONSTANT	-	6	-	TRMC			
RM	.ohmm	3	:	TLOG	CONSTANT	-	7	-	RM		
TRM	.degF	75	:	TLOG	CONSTANT	-	8	-	TRM		
RMF	.ohmm	3	:	TLOG	CONSTANT	-	9	-	RMF		
TRMF.degF	75	:	TLOG	CONSTANT	-	10	-	TRMF			
RW	.ohmm	3	:	TLOG	CONSTANT	-	11	-	RW		
TRW	.degF	75	:	TLOG	CONSTANT	-	12	-	TRW		
BHT	.degF	120	:	TLOG	CONSTANT	-	13	-	BHT		
MEAN.degF	75	:	TLOG	CONSTANT	-	14	-	MEAN	SURF	TEMP	
ARCH.UNKN	1	:	TLOG	CONSTANT	-	16	-	ARCHIE	A		
ARCH.UNKN	2	:	TLOG	CONSTANT	-	17	-	ARCHIE	M		
SAT	.UNKN	2	:	TLOG	CONSTANT	-	18	-	SAT	EXP	(N)
R	SH.ohmm	9	:	TLOG	CONSTANT	-	19	-	R	SHALE	
TD	.ft	5000	:	TLOG	CONSTANT	-	20	-	TD		
CALI.UNKN	18	:	TLOG	CONSTANT	-	23	-	CALIPER	CHANNEL		
BIT	.in	8	:	TLOG	CONSTANT	-	24	-	BIT	SIZE	(IN)
MUD	.lb/g	8	:	TLOG	CONSTANT	-	25	-	MUD	WEIGHT(#/GL)	
FM	S.ppm	0	:	TLOG	CONSTANT	-	26	-	FM	SALINITY(PPM)	
BH	S.ppm	0	:	TLOG	CONSTANT	-	27	-	BH	SALINITY(PPM)	
STAN.in	0	:	TLOG	CONSTANT	-	28	-	STANDOFF	(IL)		
STAN.in	0	:	TLOG	CONSTANT	-	29	-	STANDOFF	(NEUT)		
O_D_.in	7	:	TLOG	CONSTANT	-	30	-	O.D.	CASING(IN)		
WT_	.lb/f	20	:	TLOG	CONSTANT	-	31	-	WT.	CASING(#/FT)	
TYPE.UNKN	0	:	TLOG	CONSTANT	-	32	-	TYPE	OF	MUD	
AUTO.UNKN	0	:	TLOG	CONSTANT	-	33	-	AUTO	CALI	CORR	
GR	M.GAPI	20	:	TLOG	CONSTANT	-	61	-	GR	MATRIX	
RHO	.g/cc	2.71	:	TLOG	CONSTANT	-	62	-	RHO	MATRIX	
DT	M.us/f	47.5	:	TLOG	CONSTANT	-	63	-	DT	MATRIX	
CNL	.pu	0	:	TLOG	CONSTANT	-	64	-	CNL	MATRIX	
GR	S.GAPI	120	:	TLOG	CONSTANT	-	65	-	GR	SHALE	
RHO	.g/cc	2.4	:	TLOG	CONSTANT	-	66	-	RHO	SHALE	
DT	S.us/f	100	:	TLOG	CONSTANT	-	67	-	DT	SHALE	
CNL	.pu	0.3	:	TLOG	CONSTANT	-	68	-	CNL	SHALE	
GR	F.GAPI	20	:	TLOG	CONSTANT	-	69	-	GR	FLUID	
RHO	.g/cc	1	:	TLOG	CONSTANT	-	70	-	RHO	FLUID	
DT	F.us/f	189	:	TLOG	CONSTANT	-	71	-	DT	FLUID	
CNL	.pu	1	:	TLOG	CONSTANT	-	72	-	CNL	FLUID	
DT	M.us/f	82	:	TLOG	CONSTANT	-	73	-	DT	MATRIX	SHALE
~A
# ...
11412.5	62.282	2.46	80.622	19.1	-999	-999	-999	13.785	12	-999	-999	10763.27148	371.58801	335.09	485.59158	-999	-999	-999	-999
11413	63.854	2.469	80.26	18.56	-999	-999	-999	13.734	12	-999	-999	10763.72559	371.74353	335.23004	485.79465	-999	-999	-999	-999
11413.5	64.679	2.463	79.89	18.58	-999	-999	-999	13.683	12	-999	-999	10764.17969	371.89908	335.37012	485.99774	-999	-999	-999	-999
11414	65.427	2.469	79.087	19.12	-999	-999	-999	13.683	12	-999	-999	10764.63379	372.05466	335.51019	486.20087	-999	-999	-999	-999
11414.5	65.394	2.473	79.45	19.26	-999	-999	-999	13.734	12	-999	-999	10765.08789	372.21027	335.65027	486.40402	-999	-999	-999	-999
11415	61.149	2.472	80.535	19.84	-999	-999	-999	13.785	12	-999	-999	10765.54199	372.36584	335.79037	486.60718	-999	-999	-999	-999
11415.5	59.894	2.478	80.612	20.16	-999	-999	-999	13.887	12	-999	-999	10765.99609	372.52148	335.93051	486.81036	-999	-999	-999	-999
11416	57.528	2.481	80.611	19.88	-999	-999	-999	13.887	12	-999	-999	10766.4502	372.67712	336.07065	487.01361	-999	-999	-999	-999
11416.5	55.989	2.467	80.371	19.26	-999	-999	-999	13.683	12	-999	-999	10766.9043	372.83279	336.21082	487.21683	-999	-999	-999	-999
11417	57.6	2.463	79.869	18.78	-999	-999	-999	13.632	12	-999	-999	10767.35742	372.98846	336.35098	487.42007	-999	-999	-999	-999
11417.5	59.144	2.46	80.079	18.86	-999	-999	-999	13.632	12	-999	-999	10767.81152	373.14417	336.49118	487.62341	-999	-999	-999	-999
11418	60.694	2.462	80.47	19.22	-999	-999	-999	13.632	12	-999	-999	10768.26563	373.2999	336.63138	487.82669	-999	-999	-999	-999
11418.5	60.063	2.454	81.369	19.24	-999	-999	-999	13.734	12	-999	-999	10768.71973	373.45563	336.77161	488.03003	-999	-999	-999	-999
11419	59.097	2.451	82.073	18.8	-999	-999	-999	13.734	12	-999	-999	10769.17383	373.61139	336.91187	488.23343	-999	-999	-999	-999
11419.5	57.58	2.439	82.176	17.96	-999	-999	-999	13.734	12	-999	-999	10769.62793	373.76715	337.05212	488.43683	-999	-999	-999	-999
11420	59.127	2.44	82.179	17.76	-999	-999	-999	13.632	12	-999	-999	10770.08203	373.92294	337.19238	488.6402	-999	-999	-999	-999
11420.5	59.304	2.443	81.459	18.08	-999	-999	-999	13.429	12	-999	-999	10770.53516	374.07874	337.33267	488.84363	-999	-999	-999	-999
11421	59.603	2.451	80.832	17.56	-999	-999	-999	13.531	12	-999	-999	10770.98926	374.23459	337.47299	489.04712	-999	-999	-999	-999
11421.5	59.961	2.458	80.109	17.44	-999	-999	-999	13.683	12	-999	-999	10771.44336	374.39041	337.61331	489.25058	-999	-999	-999	-999
11422	61.473	2.473	79.351	17.28	-999	-999	-999	13.887	12	-999	-999	10771.89746	374.5463	337.75363	489.45407	-999	-999	-999	-999
11422.5	60.676	2.49	78.54	17.2	-999	-999	-999	13.988	12	-999	-999	10772.35156	374.70215	337.89401	489.65762	-999	-999	-999	-999
11423	59.912	2.478	78.606	18.04	-999	-999	-999	13.938	12	-999	-999	10772.80469	374.85806	338.03436	489.86115	-999	-999	-999	-999
11423.5	59.912	2.464	79.947	18.1	-999	-999	-999	13.582	12	-999	-999	10773.25879	375.01398	338.17477	490.06476	-999	-999	-999	-999
11424	59.923	2.44	80.818	18.08	-999	-999	-999	12.87	12	-999	-999	10773.71289	375.16992	338.31516	490.26831	-999	-999	-999	-999
11424.5	60.361	2.421	81.249	18.18	-999	-999	-999	12.616	12	-999	-999	10774.16699	375.32587	338.4556	490.47195	-999	-999	-999	-999
11425	60.685	2.42	81.056	18.6	-999	-999	-999	12.667	12	-999	-999	10774.62012	375.48184	338.59604	490.67563	-999	-999	-999	-999
11425.5	60.172	2.438	79.77	18.5	-999	-999	-999	12.819	12	-999	-999	10775.07422	375.63785	338.73648	490.8793	-999	-999	-999	-999
11426	59.912	2.457	78.921	18.74	-999	-999	-999	13.022	12	-999	-999	10775.52832	375.79385	338.87695	491.08298	-999	-999	-999	-999
11426.5	59.912	2.465	79.414	19.22	-999	-999	-999	13.022	12	-999	-999	10775.98145	375.94986	339.01746	491.28668	-999	-999	-999	-999
11427	59.921	2.449	80.596	19.58	-999	-999	-999	12.819	12	-999	-999	10776.43555	376.10593	339.15796	491.49048	-999	-999	-999	-999
11427.5	60.241	2.437	81.753	19.58	-999	-999	-999	12.667	12	-999	-999	10776.88965	376.26199	339.29846	491.69418	-999	-999	-999	-999
11428	60.739	2.43	82.035	19.06	-999	-999	-999	12.717	12	-999	-999	10777.34277	376.41806	339.439	491.89798	-999	-999	-999	-999
11428.5	61.488	2.444	81.715	18.68	-999	-999	-999	12.819	12	-999	-999	10777.79688	376.57416	339.57956	492.10181	-999	-999	-999	-999
11429	61.488	2.457	80.591	18	-999	-999	-999	12.921	12	-999	-999	10778.25	376.73029	339.72012	492.30563	-999	-999	-999	-999
11429.5	61.508	2.446	78.395	17.22	-999	-999	-999	12.972	12	-999	-999	10778.7041	376.88641	339.86072	492.50955	-999	-999	-999	-999
11430	62.041	2.444	76.592	16.94	-999	-999	-999	12.972	12	-999	-999	10779.1582	377.04257	340.00131	492.71338	-999	-999	-999	-999
11430.5	62.109	2.461	76.156	17.42	-999	-999	-999	13.022	12	-999	-999	10779.61133	377.19876	340.14194	492.9173	-999	-999	-999	-999
11431	58.161	2.473	77.457	17.8	-999	-999	-999	13.022	12	-999	-999	10780.06543	377.35495	340.28256	493.12122	-999	-999	-999	-999
11431.5	54.425	2.465	78.88	17.88	-999	-999	-999	13.022	12	-999	-999	10780.51855	377.51114	340.42322	493.3252	-999	-999	-999	-999
11432	54.257	2.45	80.268	18.9	-999	-999	-999	13.073	12	-999	-999	10780.97266	377.66739	340.5639	493.52921	-999	-999	-999	-999
11432.5	52.002	2.461	81.355	18.96	-999	-999	-999	13.226	12	-999	-999	10781.42578	377.82361	340.70459	493.73318	-999	-999	-999	-999
11433	51.242	2.456	81.354	19.22	-999	-999	-999	13.277	12	-999	-999	10781.87988	377.97989	340.84528	493.93719	-999	-999	-999	-999
11433.5	50.561	2.452	81.353	19.76	-999	-999	-999	13.277	12	-999	-999	10782.33398	378.13617	340.98599	494.14127	-999	-999	-999	-999
11434	52.071	2.449	81.352	20.02	-999	-999	-999	13.277	12	-999	-999	10782.78711	378.29248	341.12674	494.34534	-999	-999	-999	-999
11434.5	52.866	2.448	81.35	19.6	-999	-999	-999	13.175	12	-999	-999	10783.24023	378.44879	341.26749	494.54944	-999	-999	-999	-999
11435	53.705	2.453	81.349	19.52	-999	-999	-999	13.175	12	-999	-999	10783.69434	378.60513	341.40826	494.75357	-999	-999	-999	-999
11435.5	55.266	2.437	81.347	19.44	-999	-999	-999	13.226	12	-999	-999	10784.14746	378.76147	341.54904	494.95773	-999	-999	-999	-999
11436	56.7	2.418	81.347	19.38	-999	-999	-999	13.277	12	-999	-999	10784.60156	378.91785	341.68982	495.16183	-999	-999	-999	-999
11436.5	58.499	2.415	81.291	19.36	-999	-999	-999	13.277	12	-999	-999	10785.05469	379.07425	341.83066	495.36609	-999	-999	-999	-999
11437	60.663	2.422	80.834	19.24	-999	-999	-999	13.277	12	-999	-999	10785.50879	379.23065	341.97147	495.57028	-999	-999	-999	-999
11437.5	60.955	2.429	80.555	18.96	-999	-999	-999	13.277	12	-999	-999	10785.96191	379.38708	342.11234	495.77454	-999	-999	-999	-999
11438	63.549	2.43	80.553	18.74	-999	-999	-999	13.277	12	-999	-999	10786.41602	379.54355	342.2532	495.97882	-999	-999	-999	-999
11438.5	63.839	2.437	80.552	18.52	-999	-999	-999	13.226	12	-999	-999	10786.86914	379.70001	342.39407	496.18311	0.1	-999	12.6	2.69
11439	64.167	2.451	80.617	18.56	-999	-999	-999	13.175	12	-999	-999	10787.32227	379.85648	342.53497	496.38742	-999	-999	-999	-999
11439.5	67.024	2.448	81.337	18.74	-999	-999	-999	13.175	12	-999	-999	10787.77637	380.013	342.6759	496.59177	-999	-999	-999	-999
11440	67.384	2.432	81.336	19.42	-999	-999	-999	13.277	12	-999	-999	10788.22949	380.16949	342.81683	496.79614	0.31	-999	14.4	2.68
11440.5	67.758	2.429	81.334	19.96	-999	-999	-999	13.429	12	-999	-999	10788.68262	380.32605	342.95776	497.00052	-999	-999	-999	-999
11441	66.78	2.422	81.344	20.26	-999	-999	-999	13.327	12	-999	-999	10789.13672	380.4826	343.09872	497.2049	1.4	-999	17	2.68
11441.5	64.224	2.415	81.733	19.52	-999	-999	-999	13.277	12	-999	-999	10789.58984	380.63919	343.23972	497.40933	-999	-999	-999	-999
11442	62.139	2.417	82.118	18.84	-999	-999	-999	13.277	12	-999	-999	10790.04297	380.79578	343.38071	497.6138	0.42	-999	15	2.69
11442.5	60.722	2.425	82.119	18.64	-999	-999	-999	13.226	12	-999	-999	10790.49707	380.95239	343.52173	497.8183	-999	-999	-999	-999
11443	60.047	2.433	82.109	18.6	-999	-999	-999	13.226	12	-999	-999	10790.9502	381.10901	343.66275	498.02277	0.17	-999	11.6	2.71
11443.5	60.606	2.43	81.321	18.14	-999	-999	-999	13.277	12	-999	-999	10791.40332	381.26566	343.8038	498.22733	-999	-999	-999	-999
