~VERSION	INFORMATION										
VERS.	2	:CWLS	LOG	ASCII	STANDARD--VERSION	2					
WRAP.	YES	:MULTIPLE	LINE	PER	DEPTH	STEP					
~WELL	INFORMATION										
#MNEM.UNIT	DATA	DESCRIPTION									
#================================================											
STRT.F	10000	:START	DEPTH								
STOP.F	11856	:STOP	DEPTH								
STEP.F	0.5	:STEP									
NULL.	-999	:NULL	VALUE								
WELL.	X-5	:	WELL	NAME							
UWI.	Well	X-5	:	WELL	UWI						
API.	Well	X-5	:	WELL	API						
LOC.	UKCS	:	WELL	LOCATION							
DATE.	1994	:	WELL	DATE							
FLD.	Xf	:	Project	Name							
~CURVE	INFORMATION										
#================================================											
DEPTH	.ft	:DEPTH									
GR	.GAPI	:GR									
DENS.g/cc	:DENS										
SONI.us/f	:SONI										
CNL	.por%	:CNL									
MSFL.ohmm	:MSFL										
LL9S.ohmm	:LL9S										
LL9D.ohmm	:LL9D										
CALI.in	:CALI										
DI	.in	:DI									
RT	.ohmm	:RT									
RX0	.ohmm	:RX0									
TVD	.ft	:TVD									
Y	DEV	.ft	:Y	DEV							
X	DEV	.ft	:X	DEV							
ALPHA	.UNKN	:ALPHA									
KH	.UNKN	:KH									
KV	.UNKN	:KV									
CPOR.UNKN	:CPOR										
GD	.UNKN	:GD									
~PARAMETERS	INFORMATION										
#================================================											
ELEV.ft	78	:	TLOG	CONSTANT	-	4	-	ELEVATION			
RMC	.ohmm	3	:	TLOG	CONSTANT	-	5	-	RMC		
TRMC.degF	75	:	TLOG	CONSTANT	-	6	-	TRMC			
RM	.ohmm	3	:	TLOG	CONSTANT	-	7	-	RM		
TRM	.degF	75	:	TLOG	CONSTANT	-	8	-	TRM		
RMF	.ohmm	3	:	TLOG	CONSTANT	-	9	-	RMF		
TRMF.degF	75	:	TLOG	CONSTANT	-	10	-	TRMF			
RW	.ohmm	3	:	TLOG	CONSTANT	-	11	-	RW		
TRW	.degF	75	:	TLOG	CONSTANT	-	12	-	TRW		
BHT	.degF	120	:	TLOG	CONSTANT	-	13	-	BHT		
MEAN.degF	75	:	TLOG	CONSTANT	-	14	-	MEAN	SURF	TEMP	
ARCH.UNKN	1	:	TLOG	CONSTANT	-	16	-	ARCHIE	A		
ARCH.UNKN	2	:	TLOG	CONSTANT	-	17	-	ARCHIE	M		
SAT	.UNKN	2	:	TLOG	CONSTANT	-	18	-	SAT	EXP	(N)
R	SH.ohmm	9	:	TLOG	CONSTANT	-	19	-	R	SHALE	
TD	.ft	5000	:	TLOG	CONSTANT	-	20	-	TD		
CALI.UNKN	18	:	TLOG	CONSTANT	-	23	-	CALIPER	CHANNEL		
BIT	.in	8	:	TLOG	CONSTANT	-	24	-	BIT	SIZE	(IN)
MUD	.lb/g	8	:	TLOG	CONSTANT	-	25	-	MUD	WEIGHT(#/GL)	
FM	S.ppm	0	:	TLOG	CONSTANT	-	26	-	FM	SALINITY(PPM)	
BH	S.ppm	0	:	TLOG	CONSTANT	-	27	-	BH	SALINITY(PPM)	
STAN.in	0	:	TLOG	CONSTANT	-	28	-	STANDOFF	(IL)		
STAN.in	0	:	TLOG	CONSTANT	-	29	-	STANDOFF	(NEUT)		
O_D_.in	7	:	TLOG	CONSTANT	-	30	-	O.D.	CASING(IN)		
WT_	.lb/f	20	:	TLOG	CONSTANT	-	31	-	WT.	CASING(#/FT)	
TYPE.UNKN	0	:	TLOG	CONSTANT	-	32	-	TYPE	OF	MUD	
AUTO.UNKN	0	:	TLOG	CONSTANT	-	33	-	AUTO	CALI	CORR	
GR	M.GAPI	20	:	TLOG	CONSTANT	-	61	-	GR	MATRIX	
RHO	.g/cc	2.71	:	TLOG	CONSTANT	-	62	-	RHO	MATRIX	
DT	M.us/f	47.5	:	TLOG	CONSTANT	-	63	-	DT	MATRIX	
CNL	.pu	0	:	TLOG	CONSTANT	-	64	-	CNL	MATRIX	
GR	S.GAPI	120	:	TLOG	CONSTANT	-	65	-	GR	SHALE	
RHO	.g/cc	2.4	:	TLOG	CONSTANT	-	66	-	RHO	SHALE	
DT	S.us/f	100	:	TLOG	CONSTANT	-	67	-	DT	SHALE	
CNL	.pu	0.3	:	TLOG	CONSTANT	-	68	-	CNL	SHALE	
GR	F.GAPI	20	:	TLOG	CONSTANT	-	69	-	GR	FLUID	
RHO	.g/cc	1	:	TLOG	CONSTANT	-	70	-	RHO	FLUID	
DT	F.us/f	189	:	TLOG	CONSTANT	-	71	-	DT	FLUID	
CNL	.pu	1	:	TLOG	CONSTANT	-	72	-	CNL	FLUID	
DT	M.us/f	82	:	TLOG	CONSTANT	-	73	-	DT	MATRIX	SHALE
~A
# ...
10904.5	62.275	2.158	91.162	18.254	0.391	3.879	7.89	14.497	22.69379	10.12837	0.26531	10290.87305	234.13896	209.68182	-999	1700	-999	25.8	-999
10905	62.275	2.155	91.162	18.866	0.406	3.775	7.816	14.547	22.9348	10.07762	0.27719	10291.3457	234.25977	209.79082	26.4	-999	-999	-999	-999
10905.5	63.85	2.154	91.355	19.209	0.421	3.673	7.675	14.547	23.28277	9.94737	0.28915	10291.81836	234.38058	209.89986	-999	2300	-999	26.6	-999
10906	63.85	2.143	91.943	19.602	0.441	3.607	7.537	14.649	23.57866	9.818	0.30523	10292.29102	234.50145	210.00893	26.4	-999	-999	-999	-999
10906.5	63.85	2.139	91.95	19.508	0.442	3.478	7.468	14.802	23.91455	9.77606	0.30604	10292.76367	234.62233	210.11804	-999	2300	-999	26.2	-999
10907	63.062	2.152	91.95	18.823	0.405	3.323	7.268	14.954	23.70346	9.51023	0.2764	10293.23633	234.74324	210.2272	-999	-999	-999	-999	-999
10907.5	61.769	2.165	91.95	17.98	0.39	3.261	7.135	15.056	23.54176	9.33182	0.26453	10293.70898	234.86417	210.33641	25.9	1700	-999	26.3	-999
10908	59.912	2.163	91.684	17.238	0.399	3.174	6.945	15.157	23.81075	9.1259	0.27164	10294.18164	234.98514	210.44566	25.6	-999	-999	-999	-999
10908.5	59.125	2.158	91.172	18.055	0.396	3.062	6.757	15.208	23.99529	8.90975	0.26927	10294.6543	235.10612	210.55496	-999	1700	-999	25.6	-999
10909	60.7	2.162	90.835	19.136	0.383	2.927	6.575	15.208	24.13645	8.69351	0.25902	10295.12695	235.22714	210.66431	-999	-999	-999	-999	-999
10909.5	62.238	2.154	90.375	19.447	0.392	2.797	6.344	15.208	24.62368	8.44359	0.26611	10295.59961	235.34819	210.77368	26.5	2200	-999	26	-999
10910	63.85	2.162	91.359	18.52	0.421	2.717	6.116	15.361	25.11394	8.20054	0.28916	10296.07227	235.46927	210.88312	-999	-999	-999	-999	-999
10910.5	66.512	2.181	91.621	18.3	0.45	2.689	5.997	15.412	25.40137	8.07531	0.31252	10296.54492	235.59036	210.99258	25.8	-999	-999	-999	-999
10911	67.787	2.196	91.95	17.94	0.483	2.687	6.087	15.462	25.9612	8.24646	0.33946	10297.01758	235.7115	211.1021	24.6	2000	-999	26.3	-999
10911.5	70.15	2.193	91.95	17.72	0.522	2.577	5.991	15.564	26.89676	8.23505	0.37174	10297.49023	235.83266	211.21165	-999	-999	-999	-999	-999
10912	69.363	2.186	91.948	18.26	0.553	2.418	5.541	15.615	27.25559	7.70993	0.39774	10297.96289	235.95384	211.32126	26.6	1700	-999	26.4	-999
10912.5	68.575	2.186	91.334	18.86	0.559	2.17	4.884	15.717	28.22626	6.91658	0.40281	10298.43555	236.07506	211.43091	-999	-999	-999	-999	-999
10913	68.575	2.194	90.371	18.08	0.535	1.965	4.329	15.767	28.42021	6.17788	0.38262	10298.9082	236.19629	211.5406	-999	1400	-999	26.4	-999
10913.5	70.867	2.197	89.744	17.52	0.522	1.843	4.027	15.818	28.60419	5.77733	0.37175	10299.37988	236.31757	211.65033	25.3	-999	-999	-999	-999
10914	73.3	2.195	89.221	18.16	0.526	1.787	3.888	15.869	28.84805	5.60311	0.37509	10299.85254	236.43886	211.76012	22.5	-999	-999	-999	-999
10914.5	74.875	2.198	88.8	18.8	0.513	1.749	3.707	15.869	28.42405	5.32938	0.36426	10300.3252	236.56018	211.86993	-999	1300	-999	25.9	-999
10915	74.875	2.205	88.8	19.24	0.487	1.743	3.673	16.022	27.83972	5.25027	0.34276	10300.79785	236.68152	211.9798	-999	1200	760	25.6	2.62
10915.5	74.875	2.212	88.8	19.38	0.469	1.764	3.652	16.022	27.18394	5.18286	0.328	10301.27051	236.8029	212.08972	23.1	-999	-999	-999	-999
10916	74.875	2.218	88.8	19.46	0.442	1.795	3.665	16.123	26.30017	5.14868	0.30607	10301.74219	236.9243	212.19968	-999	-999	-999	-999	-999
10916.5	74.087	2.217	88.832	19.8	0.445	1.761	3.61	16.225	26.51381	5.08926	0.30849	10302.21484	237.04573	212.30968	24.2	1600	-999	26.5	2.62
10917	72.512	2.201	89.587	19.62	0.458	1.706	3.453	16.276	26.82375	4.89724	0.31904	10302.6875	237.16719	212.41971	22.4	-999	-999	-999	-999
10917.5	67	2.204	89.588	19.18	0.477	1.639	3.387	16.327	27.7007	4.85654	0.33455	10303.15918	237.28868	212.5298	-999	1100	-999	25.8	2.63
10918	67.787	2.207	89.577	19.04	0.531	1.63	3.337	16.327	28.5031	4.8293	0.37928	10303.63184	237.41019	212.63994	-999	830	-999	24.6	2.62
10918.5	70.15	2.206	89.276	19.38	0.63	1.694	3.487	16.377	30.3525	5.09522	0.46063	10304.10449	237.53174	212.75011	26.1	-999	-999	-999	-999
10919	70.525	2.209	88.782	19.7	0.885	1.901	3.914	16.327	32.6488	5.81075	0.65688	10304.57617	237.65331	212.86032	-999	1800	-999	26.6	2.62
10919.5	70.937	2.2	88.858	18.94	1.349	2.17	4.647	16.327	38.99879	7.07053	1.0198	10305.04883	237.7749	212.9706	25.1	-999	-999	-999	-999
10920	68.575	2.201	89.864	18.56	1.567	2.444	5.417	16.327	40.66847	8.26198	1.19224	10305.52148	237.89651	213.0809	-999	-999	-999	-999	-999
10920.5	68.575	2.21	90.818	19.04	1.563	2.583	5.903	16.632	39.42839	8.96758	1.18907	10305.99316	238.01817	213.19125	23.4	790	-999	25.3	2.62
10921	67.074	2.203	91.49	19.44	1.635	2.628	6.26	16.682	40.86396	9.5704	1.24625	10306.46582	238.13985	213.30165	-999	350	-999	22.5	2.62
10921.5	66.212	2.174	91.965	19.78	1.97	2.75	6.647	16.733	45.51811	10.27774	1.51356	10306.9375	238.26155	213.41208	25.7	-999	-999	-999	-999
10922	63.85	2.166	92.285	19.92	2.604	2.906	7.145	16.784	70.91168	11.31584	2.02433	10307.41016	238.38329	213.52257	-999	-999	-999	-999	-999
10922.5	63.479	2.17	92.683	20.12	3.144	3.081	7.566	16.835	127.60992	12.31561	2.46342	10307.88184	238.50505	213.6331	-999	330	-999	23.1	2.63
10923	63.062	2.163	91.968	20.06	2.899	3.24	7.907	16.835	75.02733	12.4544	2.2638	10308.35449	238.62683	213.74367	25.7	-999	-999	-999	-999
10923.5	63.062	2.162	91.162	20.48	2.652	3.372	8.163	16.835	48.05157	12.57986	2.06323	10308.82617	238.74866	213.85428	-999	330	-999	24.2	2.63
10924	59.912	2.166	91.162	21.3	2.824	3.522	8.31	16.886	47.39664	12.74098	2.20282	10309.29883	238.8705	213.96495	25.4	260	-999	22.4	2.64
10924.5	59.511	2.174	91.229	21.64	2.89	3.679	8.315	16.886	47.0601	12.62895	2.25648	10309.77051	238.99236	214.07565	-999	-999	-999	-999	-999
10925	59.125	2.183	91.691	21.84	2.827	3.769	8.171	16.886	42.78294	12.27406	2.20527	10310.24316	239.11426	214.1864	26.6	-999	-999	-999	-999
10925.5	59.125	2.193	92.08	21.26	2.878	3.742	7.79	16.886	51.59747	11.68214	2.24673	10310.71484	239.23618	214.2972	-999	890	-999	26.1	2.62
10926	60.7	2.176	92.794	21.4	2.899	3.589	7.147	16.886	58.48394	10.71609	2.26381	10311.1875	239.35814	214.40802	26.3	-999	-999	-999	-999
10926.5	59.912	2.174	93.199	22.3	2.762	3.395	6.444	16.886	56.39423	9.61335	2.15248	10311.65918	239.48012	214.51891	-999	760	-999	25.1	2.62
10927	59.125	2.174	93.444	22.66	2.549	3.213	5.848	16.886	51.41129	8.66021	1.97982	10312.13086	239.60211	214.62984	26.1	-999	-999	-999	-999
10927.5	60.019	2.166	92.981	22.26	2.354	3.079	5.407	16.784	46.92684	7.94448	1.82226	10312.60352	239.72415	214.7408	-999	350	-999	23.4	2.63
10928	60.7	2.149	92.805	22.64	2.405	2.976	5.083	16.276	50.07822	7.4886	1.86342	10313.0752	239.84621	214.85181	25.7	-999	-999	-999	-999
10928.5	63.85	2.154	93.147	22.68	2.39	2.865	4.849	16.123	51.58294	7.29344	1.85132	10313.54688	239.96829	214.96288	-999	1300	-999	25.7	2.62
10929	64.637	2.159	93.452	22.34	1.994	2.805	4.705	16.022	41.95451	6.8543	1.53281	10314.01953	240.09041	215.07397	-999	-999	-999	-999	-999
10929.5	64.445	2.168	93.159	22.78	1.713	2.815	4.729	15.971	31.5074	6.78974	1.30833	10314.49121	240.21255	215.18512	24.1	-999	-999	-999	-999
10930	64.145	2.174	91.5	22.96	1.757	2.866	4.85	15.92	32.06588	6.97621	1.34339	10314.96289	240.33473	215.29631	-999	1100	-999	25.7	2.62
10930.5	63.85	2.182	90.135	22.8	1.931	2.987	5.101	15.92	36.17524	7.37871	1.48237	10315.43457	240.45692	215.40753	25	-999	-999	-999	-999
10931	62.831	2.198	88.934	22.24	2.246	3.304	5.706	15.869	40.52399	8.27943	1.73524	10315.90625	240.57915	215.51881	-999	1200	-999	25.4	2.62
10931.5	61.487	2.202	89.073	20.94	2.518	3.66	6.422	15.767	42.32885	9.31966	1.95476	10316.37891	240.7014	215.63014	26.7	-999	-999	-999	-999
10932	59.439	2.201	91.162	20.2	2.782	4.078	7.344	15.767	42.35555	10.64806	2.16874	10316.85059	240.82367	215.7415	-999	1700	-999	26.6	2.62
10932.5	58.337	2.194	91.089	20.64	3.047	4.678	8.744	15.971	37.36313	12.60697	2.38436	10317.32227	240.94598	215.85292	23.4	-999	-999	-999	-999
10933	56.762	2.199	91.719	20.6	3.005	5.133	9.884	16.174	35.0666	14.14566	2.35014	10317.79395	241.06831	215.96437	-999	1600	730	26.3	2.63
