~VERSION	INFORMATION										
VERS.	2	:CWLS	LOG	ASCII	STANDARD--VERSION	2					
WRAP.	YES	:MULTIPLE	LINE	PER	DEPTH	STEP					
~WELL	INFORMATION										
#MNEM.UNIT	DATA	DESCRIPTION									
#================================================											
STRT.F	10000	:START	DEPTH								
STOP.F	11856	:STOP	DEPTH								
STEP.F	0.5	:STEP									
NULL.	-999	:NULL	VALUE								
WELL.	X-5	:	WELL	NAME							
UWI.	Well	X-5	:	WELL	UWI						
API.	Well	X-5	:	WELL	API						
LOC.	UKCS	:	WELL	LOCATION							
DATE.	1994	:	WELL	DATE							
FLD.	Xf	:	Project	Name							
~CURVE	INFORMATION										
#================================================											
DEPTH	.ft	:DEPTH									
GR	.GAPI	:GR									
DENS.g/cc	:DENS										
SONI.us/f	:SONI										
CNL	.por%	:CNL									
MSFL.ohmm	:MSFL										
LL9S.ohmm	:LL9S										
LL9D.ohmm	:LL9D										
CALI.in	:CALI										
DI	.in	:DI									
RT	.ohmm	:RT									
RX0	.ohmm	:RX0									
TVD	.ft	:TVD									
Y	DEV	.ft	:Y	DEV							
X	DEV	.ft	:X	DEV							
ALPHA	.UNKN	:ALPHA									
KH	.UNKN	:KH									
KV	.UNKN	:KV									
CPOR.UNKN	:CPOR										
GD	.UNKN	:GD									
~PARAMETERS	INFORMATION										
#================================================											
ELEV.ft	78	:	TLOG	CONSTANT	-	4	-	ELEVATION			
RMC	.ohmm	3	:	TLOG	CONSTANT	-	5	-	RMC		
TRMC.degF	75	:	TLOG	CONSTANT	-	6	-	TRMC			
RM	.ohmm	3	:	TLOG	CONSTANT	-	7	-	RM		
TRM	.degF	75	:	TLOG	CONSTANT	-	8	-	TRM		
RMF	.ohmm	3	:	TLOG	CONSTANT	-	9	-	RMF		
TRMF.degF	75	:	TLOG	CONSTANT	-	10	-	TRMF			
RW	.ohmm	3	:	TLOG	CONSTANT	-	11	-	RW		
TRW	.degF	75	:	TLOG	CONSTANT	-	12	-	TRW		
BHT	.degF	120	:	TLOG	CONSTANT	-	13	-	BHT		
MEAN.degF	75	:	TLOG	CONSTANT	-	14	-	MEAN	SURF	TEMP	
ARCH.UNKN	1	:	TLOG	CONSTANT	-	16	-	ARCHIE	A		
ARCH.UNKN	2	:	TLOG	CONSTANT	-	17	-	ARCHIE	M		
SAT	.UNKN	2	:	TLOG	CONSTANT	-	18	-	SAT	EXP	(N)
R	SH.ohmm	9	:	TLOG	CONSTANT	-	19	-	R	SHALE	
TD	.ft	5000	:	TLOG	CONSTANT	-	20	-	TD		
CALI.UNKN	18	:	TLOG	CONSTANT	-	23	-	CALIPER	CHANNEL		
BIT	.in	8	:	TLOG	CONSTANT	-	24	-	BIT	SIZE	(IN)
MUD	.lb/g	8	:	TLOG	CONSTANT	-	25	-	MUD	WEIGHT(#/GL)	
FM	S.ppm	0	:	TLOG	CONSTANT	-	26	-	FM	SALINITY(PPM)	
BH	S.ppm	0	:	TLOG	CONSTANT	-	27	-	BH	SALINITY(PPM)	
STAN.in	0	:	TLOG	CONSTANT	-	28	-	STANDOFF	(IL)		
STAN.in	0	:	TLOG	CONSTANT	-	29	-	STANDOFF	(NEUT)		
O_D_.in	7	:	TLOG	CONSTANT	-	30	-	O.D.	CASING(IN)		
WT_	.lb/f	20	:	TLOG	CONSTANT	-	31	-	WT.	CASING(#/FT)	
TYPE.UNKN	0	:	TLOG	CONSTANT	-	32	-	TYPE	OF	MUD	
AUTO.UNKN	0	:	TLOG	CONSTANT	-	33	-	AUTO	CALI	CORR	
GR	M.GAPI	20	:	TLOG	CONSTANT	-	61	-	GR	MATRIX	
RHO	.g/cc	2.71	:	TLOG	CONSTANT	-	62	-	RHO	MATRIX	
DT	M.us/f	47.5	:	TLOG	CONSTANT	-	63	-	DT	MATRIX	
CNL	.pu	0	:	TLOG	CONSTANT	-	64	-	CNL	MATRIX	
GR	S.GAPI	120	:	TLOG	CONSTANT	-	65	-	GR	SHALE	
RHO	.g/cc	2.4	:	TLOG	CONSTANT	-	66	-	RHO	SHALE	
DT	S.us/f	100	:	TLOG	CONSTANT	-	67	-	DT	SHALE	
CNL	.pu	0.3	:	TLOG	CONSTANT	-	68	-	CNL	SHALE	
GR	F.GAPI	20	:	TLOG	CONSTANT	-	69	-	GR	FLUID	
RHO	.g/cc	1	:	TLOG	CONSTANT	-	70	-	RHO	FLUID	
DT	F.us/f	189	:	TLOG	CONSTANT	-	71	-	DT	FLUID	
CNL	.pu	1	:	TLOG	CONSTANT	-	72	-	CNL	FLUID	
DT	M.us/f	82	:	TLOG	CONSTANT	-	73	-	DT	MATRIX	SHALE
~A
# ...
11074.5	55.975	2.239	88.012	25.58	1.347	3.298	6.902	10.176	40.36811	9.92779	1.28523	10450.79492	276.5957	248.6817	360.83682	-999	-999	-999	-999
11075	58.731	2.246	88.012	25.62	1.346	3.217	6.557	10.176	40.63658	9.42485	1.28408	10451.26465	276.72342	248.79767	361.00436	-999	-999	-999	-999
11075.5	60.7	2.258	88.012	24.36	1.282	3.229	6.401	10.176	38.4503	9.11845	1.21068	10451.7334	276.85114	248.91364	361.17197	-999	-999	-999	-999
11076	65.425	2.252	88.105	24.04	1.323	3.394	6.675	10.227	37.96502	9.47854	1.25761	10452.20313	276.97885	249.02959	361.33948	-999	-999	-999	-999
11076.5	67	2.25	88.888	24.16	1.557	3.667	7.203	10.227	40.86805	10.29229	1.5328	10452.67188	277.1066	249.14554	361.50705	-999	-999	-999	-999
11077	67	2.238	89.561	23.56	1.762	3.876	7.573	10.227	42.76025	10.86012	1.78476	10453.1416	277.23438	249.26147	361.67462	-999	-999	-999	-999
11077.5	67	2.232	90.057	22.88	1.755	3.866	7.573	10.227	42.80523	10.86411	1.776	10453.61035	277.36212	249.37741	361.84219	-999	-999	-999	-999
11078	63.504	2.22	90.46	23.76	1.575	3.775	7.299	10.227	40.09554	10.38254	1.55454	10454.08008	277.48993	249.49333	362.00977	-999	-999	-999	-999
11078.5	61.488	2.221	90.956	24.14	1.379	3.742	7.25	10.227	36.5307	10.20011	1.32234	10454.5498	277.61771	249.60924	362.17731	-999	-999	-999	-999
11079	55.975	2.218	91.162	24.76	1.276	3.863	7.522	10.227	34.44977	10.47167	1.20389	10455.01855	277.74551	249.72513	362.34482	-999	-999	-999	-999
11079.5	52.825	2.235	91.162	25.36	1.481	4.089	8.077	10.278	36.50635	11.35459	1.43204	10455.48828	277.87335	249.84102	362.51239	-999	-999	-999	-999
11080	53.088	2.221	91.162	24.98	1.711	4.375	8.748	10.328	39.13456	12.38688	1.68213	10455.95703	278.00116	249.95691	362.67996	-999	-999	-999	-999
11080.5	53.613	2.2	91.162	24.92	1.69	4.613	9.365	10.379	37.07784	13.1777	1.63673	10456.42676	278.12903	250.07278	362.8475	-999	-999	-999	-999
11081	54.65	2.202	91.256	25.12	1.719	4.805	9.89	10.43	36.533	13.88628	1.65079	10456.89551	278.25687	250.18864	363.01505	-999	-999	-999	-999
11081.5	55.975	2.201	91.714	24.8	1.993	5.026	10.608	10.43	40.35552	15.07566	1.96267	10457.36523	278.38474	250.3045	363.18262	-999	-999	-999	-999
11082	55.975	2.186	91.95	23.88	2.201	5.263	11.577	10.481	42.6922	16.58884	2.1751	10457.83398	278.5126	250.42035	363.35016	-999	-999	-999	-999
11082.5	55.975	2.176	91.95	23.98	2.273	5.494	12.722	10.481	43.01217	18.28405	2.25834	10458.30371	278.6405	250.53618	363.51767	-999	-999	-999	-999
11083	56.54	2.162	91.873	23.92	2.442	5.644	13.294	10.481	45.45774	19.22909	2.45616	10458.77246	278.7684	250.65201	363.68524	-999	-999	-999	-999
11083.5	56.762	2.165	91.48	23.54	2.397	5.661	13.425	10.481	44.48119	19.37668	2.40316	10459.24219	278.89633	250.76782	363.85281	-999	-999	-999	-999
11084	58.337	2.163	91.03	23.5	2.442	5.597	13.19	10.481	45.79792	19.10301	2.45618	10459.71191	279.02426	250.88364	364.02036	-999	-999	-999	-999
11084.5	62.275	2.175	90.629	23.58	2.445	5.393	12.721	10.481	47.32857	18.52744	2.45974	10460.18066	279.15219	250.99944	364.1879	-999	-999	-999	-999
11085	63.062	2.185	90.189	23.6	2.381	5.16	12.17	10.481	47.82459	17.78089	2.3844	10460.65039	279.28015	251.11522	364.35541	-999	-999	-999	-999
11085.5	62.275	2.205	89.559	23.16	2.283	5.002	11.346	10.532	45.85845	16.47436	2.23982	10461.11914	279.40811	251.231	364.52298	-999	-999	-999	-999
11086	60.7	2.203	89.09	23.26	2.22	4.802	10.817	10.633	45.1072	15.71088	2.12073	10461.58887	279.5361	251.34677	364.69052	-999	-999	-999	-999
11086.5	58.337	2.204	88.485	23.1	2.158	4.564	10.359	10.583	46.32283	15.12518	2.07544	10462.05762	279.66409	251.46254	364.85809	-999	-999	-999	-999
11087	57.55	2.228	88.012	22.96	2.043	4.427	10.049	10.633	44.79112	14.64106	1.93127	10462.52734	279.79208	251.57829	365.0256	-999	-999	-999	-999
11087.5	57.55	2.23	88.012	22.66	1.921	4.221	9.581	10.633	43.99033	13.95721	1.80204	10462.99609	279.9201	251.69403	365.19312	-999	-999	-999	-999
11088	57.55	2.238	88.012	22.42	1.775	3.98	8.967	10.633	42.77784	13.04451	1.64885	10463.46582	280.04813	251.80977	365.36066	-999	-999	-999	-999
11088.5	55.975	2.245	87.745	21.92	1.567	3.675	7.969	10.583	40.58902	11.51815	1.44417	10463.93457	280.17618	251.92549	365.52823	-999	-999	-999	-999
11089	55.187	2.241	86.856	22.08	1.374	3.338	7.165	10.633	38.38637	10.32821	1.23685	10464.4043	280.30423	252.04121	365.69577	-999	-999	-999	-999
11089.5	56.103	2.227	86.437	22.1	1.241	3.139	6.398	10.633	36.49416	9.14544	1.10326	10464.87305	280.43228	252.15692	365.86331	-999	-999	-999	-999
11090	56.762	2.233	86.437	22.16	1.176	2.994	5.974	10.684	35.74805	8.52057	1.03335	10465.34277	280.56036	252.27261	366.03085	-999	-999	-999	-999
11090.5	58.898	2.235	86.547	21.88	1.18	2.855	5.662	10.786	36.69716	8.11834	1.02745	10465.81152	280.68845	252.38831	366.19836	-999	-999	-999	-999
11091	61.488	2.238	86.938	22.42	1.212	2.74	5.332	10.786	38.19696	7.67837	1.05823	10466.28125	280.81656	252.50398	366.36591	430	-999	22.9	2.66
11091.5	63.61	2.251	87.389	22.42	1.225	2.64	5.082	10.837	38.91164	7.34237	1.06574	10466.75098	280.94467	252.61966	366.53345	-999	-999	-999	-999
11092	66.212	2.246	87.848	22.16	1.234	2.545	4.879	10.887	39.61209	7.07584	1.06955	10467.21973	281.07278	252.73532	366.70099	870	-999	24.8	2.65
11092.5	67	2.232	88.012	22.14	1.263	2.515	4.747	10.938	39.74065	6.88739	1.0921	10467.68945	281.20093	252.85097	366.86853	-999	-999	-999	-999
11093	69.602	2.256	88.012	22.58	1.237	2.543	4.811	11.04	38.88598	6.9675	1.05896	10468.1582	281.32907	252.96661	367.03604	-999	-999	-999	-999
11093.5	71.725	2.265	88.468	22.74	1.287	2.631	5.106	11.04	39.77736	7.42185	1.10511	10468.62793	281.45724	253.08224	367.20355	1500	-999	25.9	2.63
11094	75.662	2.27	88.765	22.96	1.403	2.752	5.543	11.091	41.72659	8.12012	1.20737	10469.09668	281.58542	253.19786	367.37112	-999	-999	-999	-999
11094.5	79.6	2.251	88.602	23.32	1.427	2.865	5.935	11.091	41.88559	8.70448	1.22952	10469.56641	281.71359	253.31348	367.53864	2000	-999	25.7	2.63
11095	81.175	2.258	88.401	23.32	1.369	2.925	6.151	11.192	39.96997	8.98761	1.1668	10470.03516	281.8418	253.42909	367.70615	2000	2000	25.9	2.63
11095.5	78.025	2.267	88.161	23.04	1.353	2.951	6.311	11.294	39.1394	9.22135	1.14415	10470.50488	281.97	253.54468	367.87369	-999	-999	-999	-999
11096	71.725	2.258	87.865	22.32	1.359	2.959	6.367	11.345	39.08425	9.31106	1.14579	10470.97363	282.09824	253.66026	368.0412	-999	-999	-999	-999
11096.5	65.425	2.262	87.423	21.24	1.269	2.923	6.591	11.447	38.79086	9.65022	1.0599	10471.44336	282.22647	253.77585	368.20877	1100	-999	24.9	2.64
11097	64.308	2.267	86.695	20.18	1.258	2.946	6.761	11.447	38.99825	9.9018	1.05024	10471.91211	282.35471	253.89142	368.37625	-999	-999	-999	-999
11097.5	61.488	2.254	86.6	20.06	1.307	2.943	6.884	11.447	39.96165	10.13551	1.09329	10472.38184	282.48297	254.00697	368.54379	950	-999	24.9	2.65
11098	60.307	2.254	87.052	19.9	1.34	2.92	7.01	11.548	40.88058	10.38266	1.11673	10472.85059	282.61124	254.12253	368.7113	-999	-999	-999	-999
11098.5	58.337	2.247	86.674	20.2	1.345	2.917	7.059	11.65	40.99927	10.47222	1.11634	10473.32031	282.73953	254.23807	368.87885	-999	-999	-999	-999
11099	56.929	2.251	86.434	20.32	1.364	2.864	6.869	11.752	41.08757	10.21834	1.12896	10473.78906	282.86783	254.35359	369.04639	-999	-999	-999	-999
11099.5	55.187	2.253	86.431	19.88	1.396	2.786	6.682	11.802	41.67999	9.99065	1.15508	10474.25879	282.99612	254.46913	369.21387	-999	-999	-999	-999
11100	54.4	2.25	86.729	19.34	1.478	2.686	6.385	11.802	45.35884	9.65079	1.2261	10474.72754	283.12445	254.5847	369.38144	-999	-999	-999	-999
11100.5	56.762	2.242	87.103	19.1	1.471	2.613	6.269	11.853	46.25418	9.519	1.21863	10475.19629	283.25281	254.70032	369.5491	-999	-999	-999	-999
11101	55.975	2.239	87.183	18.92	1.347	2.567	6.047	11.955	42.82307	9.10252	1.10944	10475.66602	283.38116	254.81595	369.71674	-999	-999	-999	-999
11101.5	56.762	2.241	87.362	19.2	1.245	2.476	5.681	12.108	39.83706	8.48349	0.98541	10476.13477	283.50952	254.93163	369.8844	-999	-999	-999	-999
11102	55.907	2.241	87.65	19.68	1.248	2.433	5.433	12.209	38.89936	8.0898	0.95431	10476.60449	283.63791	255.04733	370.05212	-999	-999	-999	-999
