~VERSION	INFORMATION										
VERS.	2	:CWLS	LOG	ASCII	STANDARD--VERSION	2					
WRAP.	YES	:MULTIPLE	LINE	PER	DEPTH	STEP					
~WELL	INFORMATION										
#MNEM.UNIT	DATA	DESCRIPTION									
#================================================											
STRT.F	10000	:START	DEPTH								
STOP.F	11856	:STOP	DEPTH								
STEP.F	0.5	:STEP									
NULL.	-999	:NULL	VALUE								
WELL.	X-5	:	WELL	NAME							
UWI.	Well	X-5	:	WELL	UWI						
API.	Well	X-5	:	WELL	API						
LOC.	UKCS	:	WELL	LOCATION							
DATE.	1994	:	WELL	DATE							
FLD.	Xf	:	Project	Name							
~CURVE	INFORMATION										
#================================================											
DEPTH	.ft	:DEPTH									
GR	.GAPI	:GR									
DENS.g/cc	:DENS										
SONI.us/f	:SONI										
CNL	.por%	:CNL									
MSFL.ohmm	:MSFL										
LL9S.ohmm	:LL9S										
LL9D.ohmm	:LL9D										
CALI.in	:CALI										
DI	.in	:DI									
RT	.ohmm	:RT									
RX0	.ohmm	:RX0									
TVD	.ft	:TVD									
Y	DEV	.ft	:Y	DEV							
X	DEV	.ft	:X	DEV							
ALPHA	.UNKN	:ALPHA									
KH	.UNKN	:KH									
KV	.UNKN	:KV									
CPOR.UNKN	:CPOR										
GD	.UNKN	:GD									
~PARAMETERS	INFORMATION										
#================================================											
ELEV.ft	78	:	TLOG	CONSTANT	-	4	-	ELEVATION			
RMC	.ohmm	3	:	TLOG	CONSTANT	-	5	-	RMC		
TRMC.degF	75	:	TLOG	CONSTANT	-	6	-	TRMC			
RM	.ohmm	3	:	TLOG	CONSTANT	-	7	-	RM		
TRM	.degF	75	:	TLOG	CONSTANT	-	8	-	TRM		
RMF	.ohmm	3	:	TLOG	CONSTANT	-	9	-	RMF		
TRMF.degF	75	:	TLOG	CONSTANT	-	10	-	TRMF			
RW	.ohmm	3	:	TLOG	CONSTANT	-	11	-	RW		
TRW	.degF	75	:	TLOG	CONSTANT	-	12	-	TRW		
BHT	.degF	120	:	TLOG	CONSTANT	-	13	-	BHT		
MEAN.degF	75	:	TLOG	CONSTANT	-	14	-	MEAN	SURF	TEMP	
ARCH.UNKN	1	:	TLOG	CONSTANT	-	16	-	ARCHIE	A		
ARCH.UNKN	2	:	TLOG	CONSTANT	-	17	-	ARCHIE	M		
SAT	.UNKN	2	:	TLOG	CONSTANT	-	18	-	SAT	EXP	(N)
R	SH.ohmm	9	:	TLOG	CONSTANT	-	19	-	R	SHALE	
TD	.ft	5000	:	TLOG	CONSTANT	-	20	-	TD		
CALI.UNKN	18	:	TLOG	CONSTANT	-	23	-	CALIPER	CHANNEL		
BIT	.in	8	:	TLOG	CONSTANT	-	24	-	BIT	SIZE	(IN)
MUD	.lb/g	8	:	TLOG	CONSTANT	-	25	-	MUD	WEIGHT(#/GL)	
FM	S.ppm	0	:	TLOG	CONSTANT	-	26	-	FM	SALINITY(PPM)	
BH	S.ppm	0	:	TLOG	CONSTANT	-	27	-	BH	SALINITY(PPM)	
STAN.in	0	:	TLOG	CONSTANT	-	28	-	STANDOFF	(IL)		
STAN.in	0	:	TLOG	CONSTANT	-	29	-	STANDOFF	(NEUT)		
O_D_.in	7	:	TLOG	CONSTANT	-	30	-	O.D.	CASING(IN)		
WT_	.lb/f	20	:	TLOG	CONSTANT	-	31	-	WT.	CASING(#/FT)	
TYPE.UNKN	0	:	TLOG	CONSTANT	-	32	-	TYPE	OF	MUD	
AUTO.UNKN	0	:	TLOG	CONSTANT	-	33	-	AUTO	CALI	CORR	
GR	M.GAPI	20	:	TLOG	CONSTANT	-	61	-	GR	MATRIX	
RHO	.g/cc	2.71	:	TLOG	CONSTANT	-	62	-	RHO	MATRIX	
DT	M.us/f	47.5	:	TLOG	CONSTANT	-	63	-	DT	MATRIX	
CNL	.pu	0	:	TLOG	CONSTANT	-	64	-	CNL	MATRIX	
GR	S.GAPI	120	:	TLOG	CONSTANT	-	65	-	GR	SHALE	
RHO	.g/cc	2.4	:	TLOG	CONSTANT	-	66	-	RHO	SHALE	
DT	S.us/f	100	:	TLOG	CONSTANT	-	67	-	DT	SHALE	
CNL	.pu	0.3	:	TLOG	CONSTANT	-	68	-	CNL	SHALE	
GR	F.GAPI	20	:	TLOG	CONSTANT	-	69	-	GR	FLUID	
RHO	.g/cc	1	:	TLOG	CONSTANT	-	70	-	RHO	FLUID	
DT	F.us/f	189	:	TLOG	CONSTANT	-	71	-	DT	FLUID	
CNL	.pu	1	:	TLOG	CONSTANT	-	72	-	CNL	FLUID	
DT	M.us/f	82	:	TLOG	CONSTANT	-	73	-	DT	MATRIX	SHALE
~A
# ...
10647	48.1	2.276	87.513	21.575	2.419	2.158	2.407	11.497	14.81407	2.75461	2.07744	10046.2666	173.9778	156.33223	226.89244	-999	-999	-999	-999
10647.5	48.1	2.29	88.01	22.036	2.138	1.894	2.124	11.497	15.64987	2.44624	1.82518	10046.74512	174.08997	156.42795	227.03452	-999	-999	-999	-999
10648	48.1	2.313	87.614	22.55	2.191	1.846	2.091	11.447	14.77	2.39643	1.87897	10047.22266	174.20213	156.52371	227.17664	-999	-999	-999	-999
10648.5	46.561	2.315	87.23	23.349	2.231	1.845	2.067	11.345	14.77	2.36563	1.93034	10047.7002	174.31433	156.61949	227.31879	-999	-999	-999	-999
10649	45.737	2.276	88.017	23.993	2.17	1.819	2.03	11.345	14.77	2.32391	1.87473	10048.17773	174.42653	156.7153	227.46094	-999	-999	-999	-999
10649.5	44.95	2.269	88.792	24.064	2.182	1.745	1.981	11.345	14.77	2.26862	1.88567	10048.65527	174.53874	156.81116	227.60316	-999	-999	-999	-999
10650	44.622	2.272	89.576	23.956	2.092	1.733	1.969	11.294	14.77	2.25326	1.81159	10049.13379	174.65099	156.90703	227.74541	-999	-999	-999	-999
10650.5	44.162	2.257	88.012	23.991	2.115	1.808	2.049	11.243	14.77	2.34159	1.84129	10049.61133	174.76323	157.00293	227.88768	-999	-999	-999	-999
10651	44.162	2.265	88.012	23.72	2.164	1.923	2.183	11.192	14.77	2.4903	1.89619	10050.08887	174.87549	157.09886	228.03	-999	-999	-999	-999
10651.5	46.648	2.266	88.012	22.845	2.39	2.036	2.337	11.192	14.77	2.66296	2.10741	10050.56641	174.98778	157.19482	228.17235	-999	-999	-999	-999
10652	49.675	2.265	88.012	21.781	2.779	2.111	2.47	11.192	14.77	2.81173	2.47382	10051.04395	175.10007	157.29082	228.31471	-999	-999	-999	-999
10652.5	51.25	2.287	88.007	22.104	3.167	2.085	2.475	11.243	12	2.65843	2.82452	10051.52148	175.21237	157.38683	228.45711	-999	-999	-999	-999
10653	51.55	2.325	86.414	20.669	2.846	2.057	2.43	11.243	14.77	2.7692	2.52211	10052	175.32469	157.48288	228.59956	-999	-999	-999	-999
10653.5	52.037	2.357	82.497	19.32	2.258	2.156	2.575	11.243	28.36298	3.20399	1.97353	10052.47754	175.43703	157.57896	228.74202	-999	-999	-999	-999
10654	52.037	2.383	81.717	18.811	2.018	2.328	2.798	11.243	33.3981	3.63057	1.75191	10052.95508	175.54938	157.67506	228.88452	1	-999	11.3	2.67
10654.5	52.037	2.381	80.92	19.399	2.101	2.526	3.088	11.294	35.10849	4.06458	1.81986	10053.43262	175.66176	157.77121	229.02707	-999	-999	-999	-999
10655	52.037	2.362	80.137	19.925	2.201	2.694	3.336	11.243	36.53964	4.43868	1.92078	10053.91016	175.77414	157.86737	229.16963	0.33	-999	17.7	2.65
10655.5	52.037	2.323	80.137	20.592	2.585	2.586	3.19	11.142	34.27094	4.15401	2.30436	10054.3877	175.88654	157.96358	229.31224	-999	-999	-999	-999
10656	48.1	2.291	80.14	21.24	2.916	2.381	2.872	11.142	14.77	3.25708	2.62034	10054.86523	175.99895	158.0598	229.45488	-999	-999	-999	-999
10656.5	47.249	2.276	80.773	21.14	2.822	2.338	2.832	11.091	14.77	3.21015	2.54765	10055.34277	176.11137	158.15605	229.59753	-999	-999	-999	-999
10657	46.525	2.259	81.723	20.981	2.833	2.318	2.847	11.091	14.77	3.22679	2.55828	10055.82031	176.22382	158.25235	229.74026	5.1	-999	22.8	2.62
10657.5	48.887	2.242	84.633	21.6	3.184	2.26	2.838	11.04	14.77	3.21427	2.92172	10056.29785	176.33627	158.34866	229.88298	-999	-999	-999	-999
10658	50.331	2.223	86.444	21.923	2.849	2.092	2.64	11.04	14.77	2.99434	2.59259	10056.77539	176.44875	158.44501	230.02576	-999	-999	-999	-999
10658.5	52.037	2.225	88.816	22.524	2.13	1.862	2.36	11.04	22.74612	2.81054	1.89659	10057.25293	176.56122	158.54138	230.16855	5.3	-999	21.9	2.64
10659	53.613	2.218	92.737	23.124	1.802	1.738	2.206	11.04	35.52652	2.92255	1.58453	10057.73047	176.67372	158.63779	230.31139	-999	-999	-999	-999
10659.5	53.613	2.216	92.738	23.462	1.532	1.69	2.174	11.04	41.36295	3.04356	1.3307	10058.20801	176.78624	158.73421	230.45422	1.8	-999	24.4	2.65
10660	52.037	2.216	92.973	23.581	1.457	1.7	2.214	11.04	42.8136	3.14088	1.26074	10058.68555	176.89877	158.83067	230.59714	-999	-999	-999	-999
10660.5	52.52	2.222	93.306	23.568	1.622	1.691	2.221	11.04	43.82953	3.1803	1.41498	10059.16309	177.01132	158.92717	230.74007	6.2	-999	20.8	2.64
10661	52.825	2.219	93.518	23.202	1.861	1.67	2.177	11.04	30.23172	2.75073	1.64039	10059.64063	177.12387	159.0237	230.88304	-999	-999	-999	-999
10661.5	54.4	2.239	91.16	23.304	1.937	1.655	2.166	11.04	24.80585	2.62113	1.71253	10060.11816	177.23645	159.12024	231.02602	-999	-999	-999	-999
10662	55.975	2.267	90.137	23.444	1.685	1.629	2.171	11.04	41.99838	3.05754	1.47419	10060.5957	177.34904	159.21683	231.16907	1.1	-999	17.5	2.6
10662.5	55.691	2.285	89.59	23.584	1.524	1.576	2.116	11.04	46.56293	3.10769	1.32324	10061.07324	177.46164	159.31343	231.3121	-999	-999	-999	-999
10663	55.187	2.291	90.375	23.957	1.52	1.537	2.062	11.04	46.45776	3.02672	1.31951	10061.55078	177.57426	159.41008	231.45522	1.2	-999	20.9	2.65
10663.5	55.187	2.29	90.37	23.902	1.484	1.511	2.019	11.04	45.94403	2.95102	1.28592	10062.02832	177.68689	159.50674	231.59833	-999	-999	-999	-999
10664	55.975	2.303	88.8	23.805	1.526	1.475	1.971	11.04	43.36798	2.81529	1.32512	10062.50586	177.79955	159.60344	231.7415	1.1	-999	16.3	2.68
10664.5	56.439	2.309	89.107	22.889	1.66	1.468	1.956	11.04	32.16217	2.51738	1.45069	10062.9834	177.9122	159.70016	231.88469	-999	-999	-999	-999
10665	56.762	2.288	89.59	22.679	1.704	1.475	1.953	11.04	28.86221	2.44321	1.49209	10063.46094	178.02489	159.79692	232.02791	-999	-999	-999	-999
10665.5	56.762	2.264	91.188	23.192	1.626	1.44	1.925	11.04	32.88135	2.494	1.41876	10063.9375	178.13757	159.89371	232.17117	0.1	-999	12.5	2.66
10666	56.762	2.255	92.737	23.222	1.527	1.375	1.867	11.04	37.04614	2.51476	1.32606	10064.41504	178.25029	159.99052	232.31444	-999	-999	-999	-999
10666.5	56.762	2.246	92.739	23.586	1.473	1.336	1.825	11.04	38.89133	2.50206	1.27568	10064.89258	178.36301	160.08737	232.45776	1	0.7	20.6	2.61
10667	55.975	2.235	93.525	24.234	1.439	1.327	1.803	11.04	40.40894	2.50793	1.24403	10065.37012	178.47574	160.18425	232.60114	-999	-999	-999	-999
10667.5	55.574	2.232	93.803	24.686	1.398	1.33	1.807	11.04	44.4104	2.60862	1.20593	10065.84766	178.5885	160.28116	232.74452	-999	-999	-999	-999
10668	54.908	2.258	94.311	23.876	1.308	1.324	1.819	11.04	49.55194	2.7463	1.12258	10066.3252	178.70126	160.3781	232.88794	-999	-999	-999	-999
10668.5	54.4	2.276	92.737	22.861	1.225	1.335	1.81	11.04	47.77545	2.69207	1.04608	10066.80273	178.81404	160.47505	233.03139	23	-999	21.1	2.64
10669	53.613	2.296	91.864	21.818	1.319	1.354	1.809	11.04	45.88623	2.64641	1.13275	10067.2793	178.92683	160.57205	233.17488	-999	-999	-999	-999
10669.5	52.816	2.32	90.37	21.409	1.458	1.353	1.831	11.04	40.53775	2.54951	1.26172	10067.75684	179.03964	160.66907	233.31839	-999	-999	-999	-999
10670	52.037	2.346	84.858	20.327	1.556	1.417	1.924	11.091	38.74799	2.6347	1.34681	10068.23438	179.15247	160.76613	233.46194	30	-999	21.6	2.66
10670.5	52.488	2.399	78.953	18.673	1.846	1.568	2.144	11.091	30.2189	2.71158	1.61741	10068.71191	179.2653	160.8632	233.60551	-999	-999	-999	-999
10671	52.825	2.407	76.201	17.773	3.188	1.721	2.351	11.04	12	2.51947	2.92583	10069.18945	179.37817	160.96033	233.74918	-999	-999	-999	-999
10671.5	54.803	2.369	78.567	18.752	4.106	1.836	2.49	11.04	12	2.66573	3.84163	10069.66602	179.49104	161.05746	233.89282	-999	-999	-999	-999
10672	56.762	2.323	84.866	20.898	2.653	1.737	2.374	10.989	14.77	2.69564	2.41938	10070.14355	179.60393	161.15463	234.03648	-999	-999	-999	-999
10672.5	55.947	2.282	89.589	22.856	1.817	1.508	1.991	10.989	22.379	2.36938	1.60789	10070.62109	179.71681	161.25183	234.18019	-999	-999	-999	-999
10673	55.187	2.264	91.95	23.633	1.377	1.399	1.843	10.989	44.23041	2.65336	1.19172	10071.09863	179.82973	161.34906	234.32394	-999	-999	-999	-999
10673.5	55.187	2.265	91.95	23.314	1.355	1.314	1.742	10.989	43.44534	2.49154	1.17115	10071.5752	179.94266	161.44632	234.46771	27	-999	22.7	2.66
10674	55.187	2.289	91.949	22.378	1.343	1.286	1.716	10.989	42.80508	2.44025	1.15995	10072.05273	180.0556	161.54361	234.61154	-999	-999	-999	-999
10674.5	55.975	2.301	89.587	21.353	1.489	1.343	1.761	10.989	32.99667	2.28436	1.29681	10072.53027	180.16856	161.64093	234.75539	-999	-999	-999	-999
10675	56.894	2.312	87.75	20.454	1.634	1.465	1.895	11.04	30.56992	2.40604	1.42633	10073.00684	180.28152	161.73828	234.89926	-999	-999	-999	-999
