~VERSION	INFORMATION										
VERS.	2	:CWLS	LOG	ASCII	STANDARD--VERSION	2					
WRAP.	YES	:MULTIPLE	LINE	PER	DEPTH	STEP					
~WELL	INFORMATION										
#MNEM.UNIT	DATA	DESCRIPTION									
#================================================											
STRT.F	10000	:START	DEPTH								
STOP.F	11856	:STOP	DEPTH								
STEP.F	0.5	:STEP									
NULL.	-999	:NULL	VALUE								
WELL.	X-5	:	WELL	NAME							
UWI.	Well	X-5	:	WELL	UWI						
API.	Well	X-5	:	WELL	API						
LOC.	UKCS	:	WELL	LOCATION							
DATE.	1994	:	WELL	DATE							
FLD.	Xf	:	Project	Name							
~CURVE	INFORMATION										
#================================================											
DEPTH	.ft	:DEPTH									
GR	.GAPI	:GR									
DENS.g/cc	:DENS										
SONI.us/f	:SONI										
CNL	.por%	:CNL									
MSFL.ohmm	:MSFL										
LL9S.ohmm	:LL9S										
LL9D.ohmm	:LL9D										
CALI.in	:CALI										
DI	.in	:DI									
RT	.ohmm	:RT									
RX0	.ohmm	:RX0									
TVD	.ft	:TVD									
Y	DEV	.ft	:Y	DEV							
X	DEV	.ft	:X	DEV							
ALPHA	.UNKN	:ALPHA									
KH	.UNKN	:KH									
KV	.UNKN	:KV									
CPOR.UNKN	:CPOR										
GD	.UNKN	:GD									
~PARAMETERS	INFORMATION										
#================================================											
ELEV.ft	78	:	TLOG	CONSTANT	-	4	-	ELEVATION			
RMC	.ohmm	3	:	TLOG	CONSTANT	-	5	-	RMC		
TRMC.degF	75	:	TLOG	CONSTANT	-	6	-	TRMC			
RM	.ohmm	3	:	TLOG	CONSTANT	-	7	-	RM		
TRM	.degF	75	:	TLOG	CONSTANT	-	8	-	TRM		
RMF	.ohmm	3	:	TLOG	CONSTANT	-	9	-	RMF		
TRMF.degF	75	:	TLOG	CONSTANT	-	10	-	TRMF			
RW	.ohmm	3	:	TLOG	CONSTANT	-	11	-	RW		
TRW	.degF	75	:	TLOG	CONSTANT	-	12	-	TRW		
BHT	.degF	120	:	TLOG	CONSTANT	-	13	-	BHT		
MEAN.degF	75	:	TLOG	CONSTANT	-	14	-	MEAN	SURF	TEMP	
ARCH.UNKN	1	:	TLOG	CONSTANT	-	16	-	ARCHIE	A		
ARCH.UNKN	2	:	TLOG	CONSTANT	-	17	-	ARCHIE	M		
SAT	.UNKN	2	:	TLOG	CONSTANT	-	18	-	SAT	EXP	(N)
R	SH.ohmm	9	:	TLOG	CONSTANT	-	19	-	R	SHALE	
TD	.ft	5000	:	TLOG	CONSTANT	-	20	-	TD		
CALI.UNKN	18	:	TLOG	CONSTANT	-	23	-	CALIPER	CHANNEL		
BIT	.in	8	:	TLOG	CONSTANT	-	24	-	BIT	SIZE	(IN)
MUD	.lb/g	8	:	TLOG	CONSTANT	-	25	-	MUD	WEIGHT(#/GL)	
FM	S.ppm	0	:	TLOG	CONSTANT	-	26	-	FM	SALINITY(PPM)	
BH	S.ppm	0	:	TLOG	CONSTANT	-	27	-	BH	SALINITY(PPM)	
STAN.in	0	:	TLOG	CONSTANT	-	28	-	STANDOFF	(IL)		
STAN.in	0	:	TLOG	CONSTANT	-	29	-	STANDOFF	(NEUT)		
O_D_.in	7	:	TLOG	CONSTANT	-	30	-	O.D.	CASING(IN)		
WT_	.lb/f	20	:	TLOG	CONSTANT	-	31	-	WT.	CASING(#/FT)	
TYPE.UNKN	0	:	TLOG	CONSTANT	-	32	-	TYPE	OF	MUD	
AUTO.UNKN	0	:	TLOG	CONSTANT	-	33	-	AUTO	CALI	CORR	
GR	M.GAPI	20	:	TLOG	CONSTANT	-	61	-	GR	MATRIX	
RHO	.g/cc	2.71	:	TLOG	CONSTANT	-	62	-	RHO	MATRIX	
DT	M.us/f	47.5	:	TLOG	CONSTANT	-	63	-	DT	MATRIX	
CNL	.pu	0	:	TLOG	CONSTANT	-	64	-	CNL	MATRIX	
GR	S.GAPI	120	:	TLOG	CONSTANT	-	65	-	GR	SHALE	
RHO	.g/cc	2.4	:	TLOG	CONSTANT	-	66	-	RHO	SHALE	
DT	S.us/f	100	:	TLOG	CONSTANT	-	67	-	DT	SHALE	
CNL	.pu	0.3	:	TLOG	CONSTANT	-	68	-	CNL	SHALE	
GR	F.GAPI	20	:	TLOG	CONSTANT	-	69	-	GR	FLUID	
RHO	.g/cc	1	:	TLOG	CONSTANT	-	70	-	RHO	FLUID	
DT	F.us/f	189	:	TLOG	CONSTANT	-	71	-	DT	FLUID	
CNL	.pu	1	:	TLOG	CONSTANT	-	72	-	CNL	FLUID	
DT	M.us/f	82	:	TLOG	CONSTANT	-	73	-	DT	MATRIX	SHALE
~A
# ...
10732.5	54.589	2.397	71.929	14.946	4.801	1.95	2.228	12.514	12	2.44032	3.82633	10127.82715	193.36646	173.13092	251.66121	-999	-999	-999	-999
10733	53.633	2.428	67.534	14.02	2.922	1.896	2.16	12.565	14.77	2.51227	2.28154	10128.30273	193.481	173.23169	251.80878	100	-999	22.6	2.64
10733.5	53.617	2.417	67.558	14.444	1.791	1.833	2.068	12.616	24.2406	2.55053	1.36988	10128.7793	193.59558	173.33247	251.95644	-999	-999	-999	-999
10734	55.607	2.356	72.283	15.437	2.842	1.732	1.94	12.616	12	2.1328	2.21651	10129.25488	193.71016	173.4333	252.10405	0.01	-999	3.7	2.66
10734.5	56.77	2.313	76.979	15.194	3.272	1.686	1.885	12.616	12	2.07329	2.56689	10129.73145	193.82475	173.53416	252.25179	-999	-999	-999	-999
10735	57.055	2.32	76.208	15.143	2.354	1.777	1.969	12.717	14.77	2.29815	1.82147	10130.20703	193.93936	173.63504	252.39948	290	250	27.8	2.64
10735.5	57.64	2.32	78.589	16.621	1.848	1.734	1.944	12.768	23.255	2.38784	1.41537	10130.68359	194.05397	173.73596	252.54723	-999	-999	-999	-999
10736	58.386	2.298	83.286	17.21	1.681	1.671	1.851	12.819	21.77283	2.25403	1.28228	10131.16016	194.16861	173.8369	252.69504	230	-999	25.2	2.64
10736.5	59.597	2.298	83.294	17.195	1.697	1.615	1.771	12.87	20.48914	2.14159	1.29501	10131.63574	194.28325	173.93787	252.84285	-999	-999	-999	-999
10737	60.889	2.302	84.844	16.881	1.933	1.566	1.736	12.87	19.04181	2.08142	1.48331	10132.1123	194.39792	174.03888	252.99071	-999	-999	-999	-999
10737.5	62.349	2.32	82.509	17.495	1.774	1.523	1.693	12.972	21.89331	2.06971	1.35634	10132.58789	194.51259	174.13991	253.1386	150	-999	28.8	2.64
10738	63.515	2.334	84.077	18.635	1.674	1.505	1.615	13.124	17.36823	1.92548	1.27672	10133.06445	194.62727	174.24097	253.28648	-999	-999	-999	-999
10738.5	64.446	2.314	84.531	19.325	1.895	1.482	1.598	13.175	14.77	1.88095	1.45293	10133.54004	194.74197	174.34206	253.43443	50	-999	20.7	2.63
10739	64.069	2.304	84.869	19.988	1.98	1.456	1.611	13.277	14.77	1.89822	1.52093	10134.01563	194.85667	174.44316	253.5824	-999	-999	-999	-999
10739.5	63.093	2.297	86.02	20.315	1.817	1.456	1.611	13.327	18.55487	1.93811	1.39064	10134.49219	194.97141	174.54431	253.73041	0.21	-999	9.2	2.65
10740	62.366	2.308	86.442	20.007	1.732	1.451	1.612	13.378	21.03595	1.96999	1.32289	10134.96777	195.08614	174.64549	253.87848	-999	-999	-999	-999
10740.5	59.931	2.333	87.205	18.656	1.849	1.447	1.604	13.48	15.95256	1.90557	1.41619	10135.44434	195.2009	174.74669	254.02652	-999	-999	-999	-999
10741	59.914	2.362	84.076	17.866	1.89	1.463	1.604	13.582	14.77	1.89627	1.44894	10135.91992	195.31566	174.84793	254.17465	-999	-999	-999	-999
10741.5	60.495	2.372	84.271	17.836	1.814	1.454	1.584	13.683	17.16519	1.89829	1.38826	10136.39648	195.43044	174.94919	254.32277	0.04	-999	12	2.66
10742	61.516	2.358	84.611	18.07	1.83	1.428	1.55	13.683	14.77	1.83512	1.40102	10136.87207	195.54521	175.05049	254.47093	6.5	-999	20.2	2.63
10742.5	62.369	2.353	85.644	18.376	1.862	1.414	1.564	13.734	14.77	1.85244	1.42658	10137.34766	195.66002	175.15181	254.61914	5.8	-999	21	2.64
10743	62.78	2.341	84.054	17.943	1.872	1.437	1.582	13.734	14.77	1.87349	1.43457	10137.82422	195.77484	175.25316	254.76735	1.3	-999	17.6	2.65
10743.5	61.247	2.353	80.135	16.941	2.029	1.508	1.642	13.836	14.77	1.94552	1.5602	10138.2998	195.88966	175.35454	254.91562	-999	-999	-999	-999
10744	60.395	2.361	79.04	16.659	2.424	1.635	1.81	13.988	14.77	2.14446	1.87799	10138.77637	196.0045	175.45595	255.06389	-999	-999	-999	-999
10744.5	57.758	2.364	76.209	16.859	2.952	1.76	1.988	14.039	12	2.21808	2.306	10139.25195	196.11935	175.55739	255.21222	-999	-999	-999	-999
10745	54.215	2.343	77.796	18.429	3.383	1.777	1.979	14.039	12	2.20823	2.65771	10139.72754	196.23422	175.65884	255.36057	-999	-999	-999	-999
10745.5	53.613	2.328	79.424	20.001	3.17	1.635	1.837	14.192	12	2.05534	2.48366	10140.2041	196.34911	175.76035	255.50894	-999	-999	-999	-999
10746	53.613	2.302	82.783	21	2.37	1.516	1.642	14.293	14.77	1.9537	1.83442	10140.67969	196.464	175.86188	255.65739	-999	-999	-999	-999
10746.5	53.613	2.265	87.225	20.847	1.855	1.426	1.527	14.293	14.77	1.81866	1.421	10141.15527	196.5789	175.96342	255.80582	-999	-999	-999	-999
10747	51.913	2.253	87.225	20.294	1.719	1.39	1.504	14.344	15.77573	1.80148	1.31256	10141.63184	196.69383	176.06502	255.95433	2.1	-999	18.7	2.64
10747.5	50.056	2.247	87.457	19.676	1.695	1.393	1.566	14.344	20.44113	1.92525	1.29346	10142.10742	196.80876	176.16663	256.10281	-999	-999	-999	-999
10748	48.898	2.242	88.8	19.029	1.605	1.398	1.576	14.344	20.77136	1.94142	1.22193	10142.58301	196.92371	176.26826	256.25137	600	-999	27.5	2.62
10748.5	48.887	2.25	88.8	19.18	1.591	1.402	1.527	14.395	16.48367	1.83625	1.21081	10143.05957	197.03867	176.36993	256.3999	-999	-999	-999	-999
10749	50.462	2.258	88.667	19.706	1.631	1.348	1.499	14.395	19.01953	1.82881	1.24258	10143.53516	197.15364	176.47163	256.54852	1.3	-999	18	2.64
10749.5	50.462	2.26	87.757	19.337	1.544	1.297	1.433	14.649	17.65216	1.73915	1.17354	10144.01074	197.26862	176.57336	256.69717	0.37	-999	17.4	2.65
10750	50.462	2.254	86.405	18.784	1.396	1.269	1.392	14.802	16.39822	1.68045	1.05647	10144.48633	197.38362	176.67513	256.84583	-999	-999	-999	-999
10750.5	51.294	2.256	84.961	18.622	1.561	1.261	1.38	14.802	16.10344	1.66353	1.18702	10144.96289	197.49863	176.77692	256.99454	1.3	-999	19	2.64
10751	53.613	2.272	82.811	19.403	2.143	1.316	1.44	14.802	12	1.62492	1.65171	10145.43848	197.61365	176.87874	257.14328	-999	-999	-999	-999
10751.5	53.98	2.297	80.705	21.064	2.068	1.371	1.531	14.802	14.77	1.83092	1.59151	10145.91406	197.7287	176.98059	257.29205	-999	-999	-999	-999
10752	54.646	2.32	82.808	22.078	2.246	1.365	1.513	14.852	12	1.70691	1.73453	10146.38965	197.84373	177.08246	257.44083	0.42	-999	17.8	2.65
10752.5	55.187	2.32	86.401	21.498	1.827	1.31	1.432	14.903	14.77	1.71522	1.39866	10146.86523	197.9588	177.18436	257.58966	-999	-999	-999	-999
10753	56.256	2.298	89.881	20.038	1.587	1.24	1.36	15.005	15.88918	1.6403	1.20765	10147.3418	198.07388	177.2863	257.73853	0.1	-999	12.9	2.65
10753.5	57.55	2.264	90.632	18.704	1.482	1.274	1.372	15.157	14.77	1.64707	1.12445	10147.81738	198.18896	177.38826	257.88739	-999	-999	-999	-999
10754	57.55	2.264	88.264	18.25	1.48	1.301	1.396	15.259	14.77	1.67672	1.12287	10148.29297	198.30406	177.49025	258.03632	-999	-999	-999	-999
10754.5	57.55	2.277	87.049	18.562	1.69	1.315	1.413	15.412	14.77	1.69856	1.2895	10148.76855	198.41917	177.59229	258.18527	31	-999	25.1	2.63
10755	57.55	2.272	86.1	18.394	1.841	1.289	1.404	15.462	14.77	1.68838	1.40985	10149.24414	198.5343	177.69434	258.33423	-999	-999	-999	-999
10755.5	57.55	2.287	86.728	17.992	1.667	1.221	1.333	15.462	14.77	1.60387	1.27121	10149.7207	198.64944	177.79642	258.48328	4.6	-999	18.5	2.64
10756	55.975	2.303	88.221	17.329	1.577	1.218	1.324	15.513	14.77	1.59363	1.19973	10150.19629	198.7646	177.89851	258.63232	-999	-999	-999	-999
10756.5	55.187	2.302	86.439	17.244	1.79	1.281	1.385	15.564	14.77	1.6668	1.36916	10150.67188	198.87976	178.00066	258.7814	22	19	26.5	2.62
10757	54.4	2.303	83.116	17.43	2.436	1.349	1.453	15.666	12	1.61425	1.88773	10151.14746	198.99495	178.10283	258.93051	-999	-999	-999	-999
10757.5	54.4	2.323	81.115	17.585	2.626	1.372	1.477	15.818	12	1.6359	2.04139	10151.62305	199.11014	178.20502	259.07965	-999	-999	-999	-999
10758	54.4	2.33	81.838	18.05	2.319	1.324	1.418	15.92	12	1.5602	1.79335	10152.09863	199.22534	178.30725	259.22882	5.7	-999	25.5	2.64
10758.5	54.4	2.334	84.353	18.527	2.052	1.245	1.335	15.971	99.05559	1.47016	1.5787	10152.57422	199.34056	178.40952	259.37802	-999	-999	-999	-999
10759	52.825	2.318	88.061	18.649	1.865	1.201	1.287	16.022	14.77	1.55378	1.42903	10153.0498	199.4558	178.5118	259.52725	12	-999	27	2.64
10759.5	51.25	2.294	89.377	18.07	1.856	1.195	1.275	16.174	14.77	1.54051	1.42184	10153.52539	199.57103	178.61411	259.67651	-999	-999	-999	-999
10760	50.802	2.281	87.626	17.559	2.308	1.195	1.283	16.276	12	1.40736	1.78449	10154.00098	199.68629	178.71645	259.82581	-999	-999	-999	-999
10760.5	50.462	2.258	87.225	17.767	2.264	1.195	1.252	16.327	12	1.33411	1.74906	10154.47754	199.80156	178.81882	259.97513	21	-999	28.6	2.64
