~VERSION	INFORMATION										
VERS.	2	:CWLS	LOG	ASCII	STANDARD--VERSION	2					
WRAP.	YES	:MULTIPLE	LINE	PER	DEPTH	STEP					
~WELL	INFORMATION										
#MNEM.UNIT	DATA	DESCRIPTION									
#================================================											
STRT.F	10000	:START	DEPTH								
STOP.F	11856	:STOP	DEPTH								
STEP.F	0.5	:STEP									
NULL.	-999	:NULL	VALUE								
WELL.	X-5	:	WELL	NAME							
UWI.	Well	X-5	:	WELL	UWI						
API.	Well	X-5	:	WELL	API						
LOC.	UKCS	:	WELL	LOCATION							
DATE.	1994	:	WELL	DATE							
FLD.	Xf	:	Project	Name							
~CURVE	INFORMATION										
#================================================											
DEPTH	.ft	:DEPTH									
GR	.GAPI	:GR									
DENS.g/cc	:DENS										
SONI.us/f	:SONI										
CNL	.por%	:CNL									
MSFL.ohmm	:MSFL										
LL9S.ohmm	:LL9S										
LL9D.ohmm	:LL9D										
CALI.in	:CALI										
DI	.in	:DI									
RT	.ohmm	:RT									
RX0	.ohmm	:RX0									
TVD	.ft	:TVD									
Y	DEV	.ft	:Y	DEV							
X	DEV	.ft	:X	DEV							
ALPHA	.UNKN	:ALPHA									
KH	.UNKN	:KH									
KV	.UNKN	:KV									
CPOR.UNKN	:CPOR										
GD	.UNKN	:GD									
~PARAMETERS	INFORMATION										
#================================================											
ELEV.ft	78	:	TLOG	CONSTANT	-	4	-	ELEVATION			
RMC	.ohmm	3	:	TLOG	CONSTANT	-	5	-	RMC		
TRMC.degF	75	:	TLOG	CONSTANT	-	6	-	TRMC			
RM	.ohmm	3	:	TLOG	CONSTANT	-	7	-	RM		
TRM	.degF	75	:	TLOG	CONSTANT	-	8	-	TRM		
RMF	.ohmm	3	:	TLOG	CONSTANT	-	9	-	RMF		
TRMF.degF	75	:	TLOG	CONSTANT	-	10	-	TRMF			
RW	.ohmm	3	:	TLOG	CONSTANT	-	11	-	RW		
TRW	.degF	75	:	TLOG	CONSTANT	-	12	-	TRW		
BHT	.degF	120	:	TLOG	CONSTANT	-	13	-	BHT		
MEAN.degF	75	:	TLOG	CONSTANT	-	14	-	MEAN	SURF	TEMP	
ARCH.UNKN	1	:	TLOG	CONSTANT	-	16	-	ARCHIE	A		
ARCH.UNKN	2	:	TLOG	CONSTANT	-	17	-	ARCHIE	M		
SAT	.UNKN	2	:	TLOG	CONSTANT	-	18	-	SAT	EXP	(N)
R	SH.ohmm	9	:	TLOG	CONSTANT	-	19	-	R	SHALE	
TD	.ft	5000	:	TLOG	CONSTANT	-	20	-	TD		
CALI.UNKN	18	:	TLOG	CONSTANT	-	23	-	CALIPER	CHANNEL		
BIT	.in	8	:	TLOG	CONSTANT	-	24	-	BIT	SIZE	(IN)
MUD	.lb/g	8	:	TLOG	CONSTANT	-	25	-	MUD	WEIGHT(#/GL)	
FM	S.ppm	0	:	TLOG	CONSTANT	-	26	-	FM	SALINITY(PPM)	
BH	S.ppm	0	:	TLOG	CONSTANT	-	27	-	BH	SALINITY(PPM)	
STAN.in	0	:	TLOG	CONSTANT	-	28	-	STANDOFF	(IL)		
STAN.in	0	:	TLOG	CONSTANT	-	29	-	STANDOFF	(NEUT)		
O_D_.in	7	:	TLOG	CONSTANT	-	30	-	O.D.	CASING(IN)		
WT_	.lb/f	20	:	TLOG	CONSTANT	-	31	-	WT.	CASING(#/FT)	
TYPE.UNKN	0	:	TLOG	CONSTANT	-	32	-	TYPE	OF	MUD	
AUTO.UNKN	0	:	TLOG	CONSTANT	-	33	-	AUTO	CALI	CORR	
GR	M.GAPI	20	:	TLOG	CONSTANT	-	61	-	GR	MATRIX	
RHO	.g/cc	2.71	:	TLOG	CONSTANT	-	62	-	RHO	MATRIX	
DT	M.us/f	47.5	:	TLOG	CONSTANT	-	63	-	DT	MATRIX	
CNL	.pu	0	:	TLOG	CONSTANT	-	64	-	CNL	MATRIX	
GR	S.GAPI	120	:	TLOG	CONSTANT	-	65	-	GR	SHALE	
RHO	.g/cc	2.4	:	TLOG	CONSTANT	-	66	-	RHO	SHALE	
DT	S.us/f	100	:	TLOG	CONSTANT	-	67	-	DT	SHALE	
CNL	.pu	0.3	:	TLOG	CONSTANT	-	68	-	CNL	SHALE	
GR	F.GAPI	20	:	TLOG	CONSTANT	-	69	-	GR	FLUID	
RHO	.g/cc	1	:	TLOG	CONSTANT	-	70	-	RHO	FLUID	
DT	F.us/f	189	:	TLOG	CONSTANT	-	71	-	DT	FLUID	
CNL	.pu	1	:	TLOG	CONSTANT	-	72	-	CNL	FLUID	
DT	M.us/f	82	:	TLOG	CONSTANT	-	73	-	DT	MATRIX	SHALE
~A
# ...
11225.5	60.895	2.433	80.423	18.569	-999	-999	-999	11.497	12	-999	-999	10592.09961	315.83362	284.64471	412.59311	-999	-999	-999	-999
11226	59.779	2.439	80.27	19.319	-999	-999	-999	11.497	12	-999	-999	10592.56445	315.96832	284.76917	412.77161	-999	-999	-999	-999
11226.5	57.944	2.425	78.035	20.191	-999	-999	-999	11.396	12	-999	-999	10593.0293	316.10309	284.89365	412.95016	-999	-999	-999	-999
11227	56.247	2.398	78.111	20.436	-999	-999	-999	11.091	12	-999	-999	10593.49512	316.23792	285.01816	413.12875	-999	-999	-999	-999
11227.5	54.683	2.37	79.279	19.803	-999	-999	-999	10.887	12	-999	-999	10593.95996	316.3728	285.14273	413.30746	-999	-999	-999	-999
11228	53.1	2.358	80.489	19.595	-999	-999	-999	10.837	12	-999	-999	10594.4248	316.50778	285.26733	413.48624	-999	-999	-999	-999
11228.5	51.837	2.346	82.172	19.926	-999	-999	-999	10.786	12	-999	-999	10594.88965	316.64282	285.392	413.6651	-999	-999	-999	-999
11229	50.399	2.339	84.347	20.256	-999	-999	-999	10.786	12	-999	-999	10595.35449	316.77792	285.51669	413.84402	-999	-999	-999	-999
11229.5	49.675	2.343	84.345	20.167	-999	-999	-999	10.735	12	-999	-999	10595.81934	316.91312	285.64142	414.02301	-999	-999	-999	-999
11230	49.675	2.344	84.291	19.911	-999	-999	-999	10.786	12	-999	-999	10596.28418	317.04837	285.7662	414.20209	-999	-999	-999	-999
11230.5	49.675	2.372	83.529	19.311	-999	-999	-999	10.837	12	-999	-999	10596.75	317.18369	285.89102	414.38126	-999	-999	-999	-999
11231	49.738	2.378	82.976	18.994	-999	-999	-999	10.837	12	-999	-999	10597.21387	317.31909	286.0159	414.56049	-999	-999	-999	-999
11231.5	50.993	2.376	81.964	18.569	-999	-999	-999	10.837	12	-999	-999	10597.67871	317.45453	286.14081	414.73978	-999	-999	-999	-999
11232	52.045	2.375	82.006	18.123	-999	-999	-999	10.837	12	-999	-999	10598.14355	317.59009	286.26578	414.91922	-999	-999	-999	-999
11232.5	51.955	2.384	82.666	17.848	-999	-999	-999	10.837	12	-999	-999	10598.6084	317.72568	286.39078	415.09863	-999	-999	-999	-999
11233	51.295	2.385	83.505	17.672	-999	-999	-999	10.887	12	-999	-999	10599.07324	317.86136	286.51581	415.2782	-999	-999	-999	-999
11233.5	52.126	2.384	82.981	17.764	-999	-999	-999	10.938	12	-999	-999	10599.53809	317.9971	286.6409	415.45779	-999	-999	-999	-999
11234	53.353	2.38	82.457	17.183	-999	-999	-999	10.938	12	-999	-999	10600.00293	318.1329	286.76602	415.63745	-999	-999	-999	-999
11234.5	54.4	2.385	81.795	16.207	-999	-999	-999	10.989	12	-999	-999	10600.46777	318.2688	286.8912	415.81726	-999	-999	-999	-999
11235	54.4	2.408	80.36	15.615	-999	-999	-999	11.04	12	-999	-999	10600.93164	318.40475	287.01642	415.99707	-999	-999	-999	-999
11235.5	54.491	2.422	80	15.581	-999	-999	-999	11.142	12	-999	-999	10601.39648	318.54077	287.14169	416.177	-999	-999	-999	-999
11236	55.738	2.424	79.643	16.682	-999	-999	-999	11.345	12	-999	-999	10601.86133	318.67688	287.267	416.35699	-999	-999	-999	-999
11236.5	57.523	2.429	80.128	18.042	-999	-999	-999	11.497	12	-999	-999	10602.3252	318.81305	287.39233	416.53702	-999	-999	-999	-999
11237	57.647	2.433	80.321	18.604	-999	-999	-999	11.497	12	-999	-999	10602.79004	318.94928	287.51773	416.71719	-999	-999	-999	-999
11237.5	58.786	2.458	79.824	18.927	-999	-999	-999	11.548	12	-999	-999	10603.25391	319.0856	287.64316	416.8974	-999	-999	-999	-999
11238	60.855	2.469	79.502	19.123	-999	-999	-999	11.65	12	-999	-999	10603.71875	319.22195	287.76862	417.07764	-999	-999	-999	-999
11238.5	61.393	2.469	78.653	19.224	-999	-999	-999	11.65	12	-999	-999	10604.18262	319.35843	287.89417	417.25803	-999	-999	-999	-999
11239	60.378	2.441	78.035	19.5	-999	-999	-999	11.599	12	-999	-999	10604.64746	319.49493	288.01971	417.43845	-999	-999	-999	-999
11239.5	59.162	2.424	78.383	20.003	-999	-999	-999	11.447	12	-999	-999	10605.11133	319.63153	288.14532	417.61899	-999	-999	-999	-999
11240	59.502	2.412	78.79	20.807	-999	-999	-999	11.345	12	-999	-999	10605.57617	319.76819	288.27097	417.79956	-999	-999	-999	-999
11240.5	59.953	2.415	78.789	21.628	-999	-999	-999	11.243	12	-999	-999	10606.04004	319.90491	288.39667	417.98022	-999	-999	-999	-999
11241	59.625	2.405	78.784	22.211	-999	-999	-999	11.091	12	-999	-999	10606.50391	320.04172	288.5224	418.16098	-999	-999	-999	-999
11241.5	58.299	2.399	78.955	22.334	-999	-999	-999	10.887	12	-999	-999	10606.96875	320.17859	288.64816	418.34177	-999	-999	-999	-999
11242	56.971	2.377	80.714	22.442	-999	-999	-999	10.837	12	-999	-999	10607.43262	320.31552	288.77399	418.52264	-999	-999	-999	-999
11242.5	55.036	2.367	82.735	22.055	-999	-999	-999	10.786	12	-999	-999	10607.89648	320.45255	288.89984	418.70361	-999	-999	-999	-999
11243	54.19	2.354	83.035	21.139	-999	-999	-999	10.684	12	-999	-999	10608.36035	320.58963	289.02576	418.88464	-999	-999	-999	-999
11243.5	53.098	2.34	83.437	19.928	-999	-999	-999	10.684	12	-999	-999	10608.8252	320.72678	289.1517	419.06577	-999	-999	-999	-999
11244	51.281	2.354	82.781	19.344	-999	-999	-999	10.684	12	-999	-999	10609.28906	320.86401	289.27771	419.24698	-999	-999	-999	-999
11244.5	49.784	2.365	81.883	19.038	-999	-999	-999	10.684	12	-999	-999	10609.75293	321.00131	289.40375	419.42825	-999	-999	-999	-999
11245	50.179	2.373	81.537	19.065	-999	-999	-999	10.684	12	-999	-999	10610.2168	321.13867	289.52982	419.60956	-999	-999	-999	-999
11245.5	50.663	2.392	80.974	19.023	-999	-999	-999	10.684	12	-999	-999	10610.68066	321.27609	289.65594	419.79099	-999	-999	-999	-999
11246	51.527	2.389	80.342	18.464	-999	-999	-999	10.684	12	-999	-999	10611.14453	321.4136	289.7821	419.97247	-999	-999	-999	-999
11246.5	52.402	2.39	80.34	18.045	-999	-999	-999	10.684	12	-999	-999	10611.6084	321.55118	289.90833	420.15402	-999	-999	-999	-999
11247	51.855	2.397	80.34	17.462	-999	-999	-999	10.684	12	-999	-999	10612.07227	321.68881	290.03458	420.33566	-999	-999	-999	-999
11247.5	50.635	2.398	80.024	17.434	-999	-999	-999	10.684	12	-999	-999	10612.53613	321.82654	290.16086	420.51736	-999	-999	-999	-999
11248	52.501	2.386	78.706	18.064	-999	-999	-999	10.684	12	-999	-999	10613	321.96432	290.2872	420.69916	-999	-999	-999	-999
11248.5	54.453	2.382	78.273	20.205	-999	-999	-999	10.735	12	-999	-999	10613.46387	322.10217	290.41357	420.88101	-999	-999	-999	-999
11249	54.87	2.361	78.224	21.17	-999	-999	-999	10.684	12	-999	-999	10613.92676	322.24011	290.54001	421.06296	-999	-999	-999	-999
11249.5	55.187	2.345	79.834	20.908	-999	-999	-999	10.633	12	-999	-999	10614.39063	322.37811	290.66647	421.24496	-999	-999	-999	-999
11250	55.187	2.32	81.467	20.056	-999	-999	-999	10.532	12	-999	-999	10614.85449	322.51617	290.79297	421.42703	-999	-999	-999	-999
11250.5	54.376	2.309	83.271	19.632	-999	-999	-999	10.379	12	-999	-999	10615.31836	322.65433	290.91953	421.60922	-999	-999	-999	-999
11251	51.505	2.317	84.902	19.634	-999	-999	-999	10.379	12	-999	-999	10615.78125	322.79254	291.04611	421.79147	-999	-999	-999	-999
11251.5	49.289	2.339	84.158	19.425	-999	-999	-999	10.379	12	-999	-999	10616.24512	322.93082	291.17276	421.97379	-999	-999	-999	-999
11252	49.296	2.347	83.338	19.477	-999	-999	-999	10.379	12	-999	-999	10616.70801	323.06915	291.29944	422.15616	-999	-999	-999	-999
11252.5	49.675	2.346	82.053	19.885	-999	-999	-999	10.43	12	-999	-999	10617.17188	323.20758	291.42615	422.33859	-999	-999	-999	-999
11253	49.675	2.352	80.727	19.588	-999	-999	-999	10.481	12	-999	-999	10617.63574	323.34607	291.55292	422.52115	-999	-999	-999	-999
11253.5	50.15	2.339	79.737	19.54	-999	-999	-999	10.481	12	-999	-999	10618.09863	323.48465	291.67972	422.70377	-999	-999	-999	-999
11254	49.7	2.348	80.31	19.977	-999	-999	-999	10.481	12	-999	-999	10618.56152	323.62326	291.80658	422.88644	-999	-999	-999	-999
11254.5	48.667	2.356	80.308	20.161	-999	-999	-999	10.481	12	-999	-999	10619.02539	323.76196	291.93347	423.06918	-999	-999	-999	-999
11255	47.723	2.377	80.306	19.56	-999	-999	-999	10.481	12	-999	-999	10619.48828	323.90076	292.06039	423.25204	-999	-999	-999	-999
11255.5	47.312	2.381	80.304	19.22	-999	-999	-999	10.481	12	-999	-999	10619.95215	324.03958	292.18738	423.43497	-999	-999	-999	-999
11256	47.312	2.377	80.302	18.82	-999	-999	-999	10.481	12	-999	-999	10620.41504	324.1785	292.31442	423.61795	-999	-999	-999	-999
