~VERSION	INFORMATION										
VERS.	2	:CWLS	LOG	ASCII	STANDARD--VERSION	2					
WRAP.	YES	:MULTIPLE	LINE	PER	DEPTH	STEP					
~WELL	INFORMATION										
#MNEM.UNIT	DATA	DESCRIPTION									
#================================================											
STRT.F	10000	:START	DEPTH								
STOP.F	11856	:STOP	DEPTH								
STEP.F	0.5	:STEP									
NULL.	-999	:NULL	VALUE								
WELL.	X-5	:	WELL	NAME							
UWI.	Well	X-5	:	WELL	UWI						
API.	Well	X-5	:	WELL	API						
LOC.	UKCS	:	WELL	LOCATION							
DATE.	1994	:	WELL	DATE							
FLD.	Xf	:	Project	Name							
~CURVE	INFORMATION										
#================================================											
DEPTH	.ft	:DEPTH									
GR	.GAPI	:GR									
DENS.g/cc	:DENS										
SONI.us/f	:SONI										
CNL	.por%	:CNL									
MSFL.ohmm	:MSFL										
LL9S.ohmm	:LL9S										
LL9D.ohmm	:LL9D										
CALI.in	:CALI										
DI	.in	:DI									
RT	.ohmm	:RT									
RX0	.ohmm	:RX0									
TVD	.ft	:TVD									
Y	DEV	.ft	:Y	DEV							
X	DEV	.ft	:X	DEV							
ALPHA	.UNKN	:ALPHA									
KH	.UNKN	:KH									
KV	.UNKN	:KV									
CPOR.UNKN	:CPOR										
GD	.UNKN	:GD									
~PARAMETERS	INFORMATION										
#================================================											
ELEV.ft	78	:	TLOG	CONSTANT	-	4	-	ELEVATION			
RMC	.ohmm	3	:	TLOG	CONSTANT	-	5	-	RMC		
TRMC.degF	75	:	TLOG	CONSTANT	-	6	-	TRMC			
RM	.ohmm	3	:	TLOG	CONSTANT	-	7	-	RM		
TRM	.degF	75	:	TLOG	CONSTANT	-	8	-	TRM		
RMF	.ohmm	3	:	TLOG	CONSTANT	-	9	-	RMF		
TRMF.degF	75	:	TLOG	CONSTANT	-	10	-	TRMF			
RW	.ohmm	3	:	TLOG	CONSTANT	-	11	-	RW		
TRW	.degF	75	:	TLOG	CONSTANT	-	12	-	TRW		
BHT	.degF	120	:	TLOG	CONSTANT	-	13	-	BHT		
MEAN.degF	75	:	TLOG	CONSTANT	-	14	-	MEAN	SURF	TEMP	
ARCH.UNKN	1	:	TLOG	CONSTANT	-	16	-	ARCHIE	A		
ARCH.UNKN	2	:	TLOG	CONSTANT	-	17	-	ARCHIE	M		
SAT	.UNKN	2	:	TLOG	CONSTANT	-	18	-	SAT	EXP	(N)
R	SH.ohmm	9	:	TLOG	CONSTANT	-	19	-	R	SHALE	
TD	.ft	5000	:	TLOG	CONSTANT	-	20	-	TD		
CALI.UNKN	18	:	TLOG	CONSTANT	-	23	-	CALIPER	CHANNEL		
BIT	.in	8	:	TLOG	CONSTANT	-	24	-	BIT	SIZE	(IN)
MUD	.lb/g	8	:	TLOG	CONSTANT	-	25	-	MUD	WEIGHT(#/GL)	
FM	S.ppm	0	:	TLOG	CONSTANT	-	26	-	FM	SALINITY(PPM)	
BH	S.ppm	0	:	TLOG	CONSTANT	-	27	-	BH	SALINITY(PPM)	
STAN.in	0	:	TLOG	CONSTANT	-	28	-	STANDOFF	(IL)		
STAN.in	0	:	TLOG	CONSTANT	-	29	-	STANDOFF	(NEUT)		
O_D_.in	7	:	TLOG	CONSTANT	-	30	-	O.D.	CASING(IN)		
WT_	.lb/f	20	:	TLOG	CONSTANT	-	31	-	WT.	CASING(#/FT)	
TYPE.UNKN	0	:	TLOG	CONSTANT	-	32	-	TYPE	OF	MUD	
AUTO.UNKN	0	:	TLOG	CONSTANT	-	33	-	AUTO	CALI	CORR	
GR	M.GAPI	20	:	TLOG	CONSTANT	-	61	-	GR	MATRIX	
RHO	.g/cc	2.71	:	TLOG	CONSTANT	-	62	-	RHO	MATRIX	
DT	M.us/f	47.5	:	TLOG	CONSTANT	-	63	-	DT	MATRIX	
CNL	.pu	0	:	TLOG	CONSTANT	-	64	-	CNL	MATRIX	
GR	S.GAPI	120	:	TLOG	CONSTANT	-	65	-	GR	SHALE	
RHO	.g/cc	2.4	:	TLOG	CONSTANT	-	66	-	RHO	SHALE	
DT	S.us/f	100	:	TLOG	CONSTANT	-	67	-	DT	SHALE	
CNL	.pu	0.3	:	TLOG	CONSTANT	-	68	-	CNL	SHALE	
GR	F.GAPI	20	:	TLOG	CONSTANT	-	69	-	GR	FLUID	
RHO	.g/cc	1	:	TLOG	CONSTANT	-	70	-	RHO	FLUID	
DT	F.us/f	189	:	TLOG	CONSTANT	-	71	-	DT	FLUID	
CNL	.pu	1	:	TLOG	CONSTANT	-	72	-	CNL	FLUID	
DT	M.us/f	82	:	TLOG	CONSTANT	-	73	-	DT	MATRIX	SHALE
~A
# ...
11132.5	64.637	2.062	87.876	26.1	-999	-999	-999	11.294	12	-999	-999	10505.20215	291.49457	262.16693	380.34793	-999	-999	-999	-999
11133	64.637	2.071	87.875	25.56	-999	-999	-999	11.091	12	-999	-999	10505.6709	291.62378	262.28467	380.51779	-999	-999	-999	-999
11133.5	64.637	2.102	87.857	25.78	-999	-999	-999	10.938	12	-999	-999	10506.13867	291.75302	262.40244	380.68771	590	-999	24.2	-999
11134	64.637	2.158	87.389	26.12	-999	-999	-999	10.938	12	-999	-999	10506.60742	291.88226	262.52023	380.8576	-999	-999	-999	-999
11134.5	64.084	2.186	86.735	26.66	-999	-999	-999	10.938	12	-999	-999	10507.07617	292.01151	262.63803	381.02756	460	-999	23.8	-999
11135	60.614	2.214	86.208	27.78	-999	-999	-999	10.938	12	-999	-999	10507.54395	292.14078	262.75589	381.19754	-999	-999	-999	-999
11135.5	59.855	2.256	84.707	27.64	-999	-999	-999	10.837	12	-999	-999	10508.0127	292.27008	262.87378	381.36758	-999	-999	-999	-999
11136	59.251	2.298	84.51	26.299	-999	-999	-999	10.837	12	-999	-999	10508.48145	292.39935	262.9917	381.53763	-999	-999	-999	-999
11136.5	58.059	2.339	84.243	25.119	-999	-999	-999	10.837	12	-999	-999	10508.94922	292.52869	263.10968	381.70779	120	110	23	-999
11137	54.848	2.353	83.904	24.635	-999	-999	-999	10.837	12	-999	-999	10509.41797	292.65799	263.22766	381.8779	-999	-999	-999	-999
11137.5	53.238	2.376	83.54	23.76	-999	-999	-999	10.837	12	-999	-999	10509.88574	292.78732	263.34567	382.04803	-999	-999	-999	-999
11138	52.744	2.396	83.114	23.868	-999	-999	-999	10.786	12	-999	-999	10510.35449	292.91669	263.46375	382.21829	7.1	-999	17.1	-999
11138.5	54.111	2.409	82.818	24.33	-999	-999	-999	10.684	12	-999	-999	10510.82227	293.04605	263.58182	382.38849	-999	-999	-999	-999
11139	55.697	2.398	82.56	23.711	-999	-999	-999	10.684	12	-999	-999	10511.29102	293.17542	263.69995	382.55878	-999	-999	-999	-999
11139.5	54.818	2.385	82.26	23.338	-999	-999	-999	10.684	12	-999	-999	10511.75977	293.30481	263.81808	382.72906	64	-999	21	-999
11140	54.534	2.376	81.611	23.259	-999	-999	-999	10.684	12	-999	-999	10512.22754	293.4342	263.93628	382.89944	-999	-999	-999	-999
11140.5	55.039	2.358	82.515	23.27	-999	-999	-999	10.684	12	-999	-999	10512.69629	293.56363	264.0545	383.06979	24	-999	18.1	2.66
11141	55.498	2.349	83.217	23.436	-999	-999	-999	10.684	12	-999	-999	10513.16406	293.69305	264.17273	383.2402	-999	-999	-999	-999
11141.5	55.883	2.333	84.768	23.082	-999	-999	-999	10.684	12	-999	-999	10513.63281	293.82248	264.29102	383.41061	-999	-999	-999	-999
11142	56.689	2.303	86.052	22.297	-999	-999	-999	10.684	12	-999	-999	10514.10059	293.95193	264.40933	383.58112	-999	-999	-999	-999
11142.5	57.434	2.281	87.086	21.565	-999	-999	-999	10.684	12	-999	-999	10514.56836	294.08142	264.52768	383.75165	91	-999	21.5	2.69
11143	59.055	2.291	87.807	21.723	-999	-999	-999	10.684	12	-999	-999	10515.03711	294.21091	264.64606	383.92218	-999	-999	-999	-999
11143.5	60.7	2.283	88.605	22.118	-999	-999	-999	10.684	12	-999	-999	10515.50488	294.34039	264.7645	384.09274	87	-999	21	2.7
11144	60.7	2.272	88.784	22.768	-999	-999	-999	10.684	12	-999	-999	10515.97363	294.46991	264.88293	384.2634	-999	-999	-999	-999
11144.5	60.686	2.269	90.927	23.171	-999	-999	-999	10.684	12	-999	-999	10516.44141	294.59943	265.0014	384.43402	-999	-999	-999	-999
11145	59.547	2.26	90.19	23.027	-999	-999	-999	10.583	12	-999	-999	10516.91016	294.72894	265.11993	384.60471	48	-999	20	2.7
11145.5	58.29	2.245	90.188	22.277	-999	-999	-999	10.583	12	-999	-999	10517.37793	294.85849	265.23846	384.77542	-999	-999	-999	-999
11146	57.534	2.248	90.186	21.555	-999	-999	-999	10.583	12	-999	-999	10517.8457	294.98807	265.35706	384.9462	20	-999	18.7	2.66
11146.5	57.281	2.232	90.185	21.58	-999	-999	-999	10.583	12	-999	-999	10518.31445	295.11765	265.47565	385.117	-999	-999	-999	-999
11147	56.951	2.225	90.182	21.824	-999	-999	-999	10.583	12	-999	-999	10518.78223	295.24722	265.5943	385.28778	1400	-999	20.6	2.68
11147.5	56.55	2.219	90.179	22.11	-999	-999	-999	10.583	12	-999	-999	10519.25	295.37683	265.71298	385.45868	-999	-999	-999	-999
11148	56.05	2.222	90.178	21.905	-999	-999	-999	10.583	12	-999	-999	10519.71875	295.50644	265.8317	385.62958	-999	-999	-999	-999
11148.5	56.488	2.222	90.176	22.335	-999	-999	-999	10.532	12	-999	-999	10520.18652	295.63608	265.95041	385.80048	35	-999	19.2	2.65
11149	56.762	2.226	90.174	22.844	-999	-999	-999	10.481	12	-999	-999	10520.6543	295.76572	266.06918	385.97147	-999	-999	-999	-999
11149.5	56.762	2.238	90.172	23.275	-999	-999	-999	10.481	12	-999	-999	10521.12305	295.89536	266.18799	386.1424	46	-999	19.7	2.67
11150	56.762	2.255	90.18	23.515	-999	-999	-999	10.43	12	-999	-999	10521.59082	296.02502	266.30685	386.31348	-999	-999	-999	-999
11150.5	57.133	2.255	90.558	23.641	-999	-999	-999	10.43	12	-999	-999	10522.05859	296.15469	266.42572	386.48453	-999	-999	-999	-999
11151	58.032	2.235	91.051	23.478	-999	-999	-999	10.379	12	-999	-999	10522.52637	296.28439	266.54462	386.65564	-999	-999	-999	-999
11151.5	59.496	2.224	91.73	23.456	-999	-999	-999	10.328	12	-999	-999	10522.99512	296.41409	266.66354	386.82675	-999	-999	-999	-999
11152	59.494	2.232	91.353	23.461	-999	-999	-999	10.328	12	-999	-999	10523.46289	296.54382	266.78253	386.99792	-999	-999	-999	-999
11152.5	58.064	2.232	90.916	23.25	-999	-999	-999	10.328	12	-999	-999	10523.93066	296.67355	266.90152	387.16916	-999	-999	-999	-999
11153	55.577	2.237	89.777	23.297	-999	-999	-999	10.328	12	-999	-999	10524.39844	296.80331	267.02057	387.34039	-999	-999	-999	-999
11153.5	54.99	2.238	89.37	23.57	-999	-999	-999	10.328	12	-999	-999	10524.86621	296.93307	267.13962	387.51166	26	-999	18	2.71
11154	54.422	2.234	89.367	23.994	-999	-999	-999	10.328	12	-999	-999	10525.33496	297.06284	267.25873	387.68298	-999	-999	-999	-999
11154.5	54.4	2.231	89.366	24.331	-999	-999	-999	10.328	12	-999	-999	10525.80273	297.19263	267.37787	387.85431	-999	-999	-999	-999
11155	54.4	2.226	89.359	24.596	-999	-999	-999	10.328	12	-999	-999	10526.27051	297.32242	267.49704	388.02567	-999	-999	-999	-999
11155.5	54.892	2.231	89.081	24.444	-999	-999	-999	10.328	12	-999	-999	10526.73828	297.45224	267.61624	388.19708	5.6	-999	16.1	2.71
11156	55.2	2.231	88.778	24.002	-999	-999	-999	10.328	12	-999	-999	10527.20605	297.58206	267.73547	388.36856	6	-999	16.5	2.7
11156.5	57.55	2.227	88.587	23.642	-999	-999	-999	10.328	12	-999	-999	10527.67383	297.71188	267.85474	388.54001	-999	-999	-999	-999
11157	57.55	2.231	89.873	23.635	-999	-999	-999	10.328	12	-999	-999	10528.1416	297.84174	267.97403	388.71152	-999	-999	-999	-999
11157.5	57.661	2.235	90.921	22.959	-999	-999	-999	10.328	12	-999	-999	10528.61035	297.97162	268.09335	388.88309	330	-999	21.1	2.66
11158	59.58	2.238	90.183	21.836	-999	-999	-999	10.328	12	-999	-999	10529.07813	298.10147	268.21271	389.05463	-999	-999	-999	-999
11158.5	60.865	2.248	89.336	21.17	-999	-999	-999	10.328	12	-999	-999	10529.5459	298.23138	268.33212	389.22629	280	-999	21.1	2.63
11159	62.684	2.273	87.818	21.17	-999	-999	-999	10.328	12	-999	-999	10530.01367	298.36127	268.45154	389.39792	-999	-999	-999	-999
11159.5	64.838	2.307	86.178	21.63	-999	-999	-999	10.278	12	-999	-999	10530.48145	298.49121	268.57101	389.56964	-999	-999	-999	-999
11160	65.369	2.31	84.619	21.789	-999	-999	-999	10.278	12	-999	-999	10530.94922	298.62112	268.69049	389.7413	530	-999	24.1	2.64
11160.5	65.096	2.295	84.617	21.346	-999	-999	-999	10.328	12	-999	-999	10531.41699	298.75107	268.81003	389.91309	-999	-999	-999	-999
11161	64.122	2.29	84.609	20.898	-999	-999	-999	10.328	12	-999	-999	10531.88477	298.88101	268.9296	390.08487	260	-999	20.8	2.65
11161.5	62.444	2.303	83.615	21.364	-999	-999	-999	10.328	12	-999	-999	10532.35254	299.01099	269.04919	390.25668	-999	-999	-999	-999
11162	61.689	2.309	83.03	22.525	-999	-999	-999	10.328	12	-999	-999	10532.82031	299.14099	269.16879	390.42859	-999	-999	-999	-999
11162.5	62.689	2.295	82.252	22.861	-999	-999	-999	10.328	12	-999	-999	10533.28809	299.27097	269.28845	390.60043	1500	-999	26.1	2.63
11163	62.522	2.278	83.929	22.974	-999	-999	-999	10.328	12	-999	-999	10533.75586	299.40097	269.40814	390.77237	-999	-999	-999	-999
